,latitude,longitude,name,Address,Area,Cost for two,Cuisine,Hours,Ratings,Type,Votes,Food-choices
0,22.568942,88.433182,Barbeque Nation," K1, RDB Boulevard, Block EP & GP, Sector 5, Salt Lake","RDB Boulevard, Sector 5",1400," North Indian, Chinese, Charcoal Grill, Kebab, BBQ","                                12 Noon to 2:45 PM, 6:30 PM to 10:45 PM (Mon-Sun)",4.8,Casual Dining,6424 votes,"ChickenDumBiryani,VegetableBiryani,MalaiKofta,Mocktails,MangoPastry,Firni,MuttonDakBunglow"
1,22.5137382464,88.3627206087,What's Up," 122A, Southern Avenue, Kolkata",Southern Avenue,1000," Chinese, Continental, Italian, Kebab","                                12 Noon to 12 Midnight (Mon, Tue, Wed, Thu, Sun), 12...",4.1,"Casual Dining,Lounge",1730 votes,"ChickenTikka,Mocktails,KiwiMojito,Bruschettas,Pinacolada,Risotto,Lasagne"
2,22.5525052927,88.3526985347,Peter Cat," 18A, Park Street, Park Street Area, Kolkata",Park Street Area,1200," Continental, North Indian",                                11 AM to 11:20 PM (Mon-Sun),4.2,Casual Dining,8396 votes,"CheloKebab,PrawnCurry,Screwdriver,MangoSouffle,SeaFood,AfghaniKebab,ChickenBharta"
3,22.518565,88.350252,Oudh 1590," 23/B, Desapriya Park(West)",Desapriya Park,1200," Mughlai, Awadhi","                                12 Noon to 3:30 PM, 6:30 PM to 10:30 PM (Mon-Sun)",4.3,Casual Dining,4065 votes,"RaanBiryani,GalautiKebab,Kheer,DalMakhani,ChickenIrani,DumBiryani,HandiBiryani"
4,22.5148736898,88.3932954445,Hoppipola," Acropolis Mall (4th Floor),1858, Rajdanga Main Road,? Kasba, ?Kolkata-700108","Acropolis Mall, Kasba",1500," Italian, Mexican, American, Mediterranean","                                12:30 PM to 11 PM (Mon, Tue, Wed, Thu, Fri, Sun)...",4.1,"Bar,Casual Dining",1721 votes,"Risotto,PorkPlatter,Brownie,PassionMartini,LongIslandIcedTea,ChickenSkewer,Nachos"
5,22.5148736898,88.3932954445,Ozora," Acropolis Mall, 1858, Rajdanga Main Road, Kasba, Kolkata","Acropolis Mall, Kasba",1700," Chinese, North Indian",                                4 PM to 12 Midnight (Mon-Sun),3.8,"Bar,Lounge",448 votes,"Mocktails,CrispyChicken,DaabChingri"
6,22.5279139,88.3679881,6 Ballygunge Place," 6, Ballygunge Place, Ballygunge, Kolkata",Ballygunge,1000, Bengali,"                                12:30 PM to 3:30 PM, 7 PM to 10:30 PM (Mon-Sun)",4.5,Casual Dining,2067 votes,"DaabChingri,FriedFish,Luchi,DimerDevil,BhapaDoi,PrawnMalaiCurry,Rasmalai"
7,22.5479593,88.3992831,JW Kitchen - JW Marriott Hotel Kolkata," JW Marriott Hotel Kolkata, 4A, J.B.S Haldane Avenue, Science City Area, Kolkata","JW Marriott Hotel Kolkata, Science City Area",2000," North Indian, European, Mediterranean, Thai, Salad, Juices",                                24 Hours (Mon-Sun),4.5,Casual Dining,1040 votes,"PaneerTikka,MuttonBiryani,ChocolateMousse,Noodles,DahiVada,CremeBrulee,ChickenBiryani"
8,22.526294,88.364614,Spice Kraft," 54/1/2A, Hazra Road, Ballygunge Phari, Near Hazra Law College, Ballygunge, Kolkata",Ballygunge,1200," Continental, Asian, Middle Eastern","                                12 Noon to 3 PM, 6 PM to 12 Midnight (Mon, Thu, Fri...",4.8,Casual Dining,2231 votes,"ShephardsPie,Mocktails,DajajChermoula,Mousse,SaffronRice,Sushi,BeerCocktail"
9,22.5528963637,88.3525379375,BarBQ," 43-47-55, Park Street Area, Kolkata",Park Street Area,900," Chinese, North Indian",                                12 Noon to 11:15 PM (Mon-Sun),4.3,"Casual Dining,Bar",5789 votes,"Noodles,ChickenButterMasala,ChickenHakkaChowmein,ChickenBharta,MuttonRoganjosh,JeeraRice,PorkChowmein"
10,22.6233044,88.4502776,Traffic Gastropub,,,,,,,,,FriendlyStaff
11,22.5420038624,88.3636107668,Arsalan," 28, Circus Avenue, Near A.J.C. Bose Road Flyover, Park Circus Area, Kolkata",Park Circus Area,700," North Indian, Mughlai, Rolls",                                11 AM to 12 Midnight (Mon-Sun),4.2,Casual Dining,4227 votes,"Firni,MuttonKosha,ChickenChatpata,MuttonBiryani,Haleem,TandooriChicken,ChickenTikkaKebab"
12,22.5422852,88.351764,Scrapyard," 10th Floor, 12-A, Usha Kiran Building, Camac Street Area, Kolkata",Camac Street Area,1100," North Indian, Chinese, Continental","                                1 PM to 12 Midnight (Mon, Tue, Wed, Thu, Sun), 12...",3.6,"Lounge,Casual Dining",227 votes,"PaneerTikka,Mocktails,VirginMojito,Chocolava"
13,22.5419254,88.3858001,The GRID," Haute Street Corporate Park, 86A Topsia Road (South), Kolkata",Topsia,1800," Continental, Burger, Italian, Pizza","                                12 Noon to 12 Midnight (Mon, Tue, Wed, Thu, Sun), 12...",4.3,"Microbrewery,Casual Dining",670 votes,"ThinCrustPizza,Mocktails,CraftBeer,Stout,BrewedBeer,Mudpie,TandooriAloo"
14,22.5382752,88.3653259,Chili's Grill & Bar," 4th Floor, Quest Mall, 33, Syed Ali Amir Avenue, Ballygunge, Kolkata","Quest Mall, Ballygunge",1700," American, Mexican, Italian, Burger",                                12 Noon to 11:30 PM (Mon-Sun),4.9,"Casual Dining,Bar",4352 votes,"TomatoSoup,Sangria,SantaFeSalad,Mocktails,Fajitas,Fajita,ChickenNachos"
15,22.568942,88.433182,Barbeque Nation," K1, RDB Boulevard, Block EP & GP, Sector 5, Salt Lake","RDB Boulevard, Sector 5",1400," North Indian, Chinese, Charcoal Grill, Kebab, BBQ","                                12 Noon to 2:45 PM, 6:30 PM to 10:45 PM (Mon-Sun)",4.8,Casual Dining,6424 votes,"ChickenDumBiryani,VegetableBiryani,MalaiKofta,Mocktails,MangoPastry,Firni,MuttonDakBunglow"
16,22.5137382464,88.3627206087,What's Up," 122A, Southern Avenue, Kolkata",Southern Avenue,1000," Chinese, Continental, Italian, Kebab","                                12 Noon to 12 Midnight (Mon, Tue, Wed, Thu, Sun), 12...",4.1,"Casual Dining,Lounge",1730 votes,"ChickenTikka,Mocktails,KiwiMojito,Bruschettas,Pinacolada,Risotto,Lasagne"
17,22.5525052927,88.3526985347,Peter Cat," 18A, Park Street, Park Street Area, Kolkata",Park Street Area,1200," Continental, North Indian",                                11 AM to 11:20 PM (Mon-Sun),4.2,Casual Dining,8396 votes,"CheloKebab,PrawnCurry,Screwdriver,MangoSouffle,SeaFood,AfghaniKebab,ChickenBharta"
18,22.518565,88.350252,Oudh 1590," 23/B, Desapriya Park(West)",Desapriya Park,1200," Mughlai, Awadhi","                                12 Noon to 3:30 PM, 6:30 PM to 10:30 PM (Mon-Sun)",4.3,Casual Dining,4065 votes,"RaanBiryani,GalautiKebab,Kheer,DalMakhani,ChickenIrani,DumBiryani,HandiBiryani"
19,22.5148736898,88.3932954445,Hoppipola," Acropolis Mall (4th Floor),1858, Rajdanga Main Road,? Kasba, ?Kolkata-700108","Acropolis Mall, Kasba",1500," Italian, Mexican, American, Mediterranean","                                12:30 PM to 11 PM (Mon, Tue, Wed, Thu, Fri, Sun)...",4.1,"Bar,Casual Dining",1721 votes,"Risotto,PorkPlatter,Brownie,PassionMartini,LongIslandIcedTea,ChickenSkewer,Nachos"
20,22.5148736898,88.3932954445,Ozora," Acropolis Mall, 1858, Rajdanga Main Road, Kasba, Kolkata","Acropolis Mall, Kasba",1700," Chinese, North Indian",                                4 PM to 12 Midnight (Mon-Sun),3.8,"Bar,Lounge",448 votes,"Mocktails,CrispyChicken,DaabChingri"
21,22.5279139,88.3679881,6 Ballygunge Place," 6, Ballygunge Place, Ballygunge, Kolkata",Ballygunge,1000, Bengali,"                                12:30 PM to 3:30 PM, 7 PM to 10:30 PM (Mon-Sun)",4.5,Casual Dining,2067 votes,"DaabChingri,FriedFish,Luchi,DimerDevil,BhapaDoi,PrawnMalaiCurry,Rasmalai"
22,22.5479593,88.3992831,JW Kitchen - JW Marriott Hotel Kolkata," JW Marriott Hotel Kolkata, 4A, J.B.S Haldane Avenue, Science City Area, Kolkata","JW Marriott Hotel Kolkata, Science City Area",2000," North Indian, European, Mediterranean, Thai, Salad, Juices",                                24 Hours (Mon-Sun),4.5,Casual Dining,1040 votes,"PaneerTikka,MuttonBiryani,ChocolateMousse,Noodles,DahiVada,CremeBrulee,ChickenBiryani"
23,22.526294,88.364614,Spice Kraft," 54/1/2A, Hazra Road, Ballygunge Phari, Near Hazra Law College, Ballygunge, Kolkata",Ballygunge,1200," Continental, Asian, Middle Eastern","                                12 Noon to 3 PM, 6 PM to 12 Midnight (Mon, Thu, Fri...",4.8,Casual Dining,2231 votes,"ShephardsPie,Mocktails,DajajChermoula,Mousse,SaffronRice,Sushi,BeerCocktail"
24,22.5528963637,88.3525379375,BarBQ," 43-47-55, Park Street Area, Kolkata",Park Street Area,900," Chinese, North Indian",                                12 Noon to 11:15 PM (Mon-Sun),4.3,"Casual Dining,Bar",5789 votes,"Noodles,ChickenButterMasala,ChickenHakkaChowmein,ChickenBharta,MuttonRoganjosh,JeeraRice,PorkChowmein"
25,22.6233044,88.4502776,Traffic Gastropub,,,,,,,,,FriendlyStaff
26,22.5420038624,88.3636107668,Arsalan," 28, Circus Avenue, Near A.J.C. Bose Road Flyover, Park Circus Area, Kolkata",Park Circus Area,700," North Indian, Mughlai, Rolls",                                11 AM to 12 Midnight (Mon-Sun),4.2,Casual Dining,4227 votes,"Firni,MuttonKosha,ChickenChatpata,MuttonBiryani,Haleem,TandooriChicken,ChickenTikkaKebab"
27,22.5422852,88.351764,Scrapyard," 10th Floor, 12-A, Usha Kiran Building, Camac Street Area, Kolkata",Camac Street Area,1100," North Indian, Chinese, Continental","                                1 PM to 12 Midnight (Mon, Tue, Wed, Thu, Sun), 12...",3.6,"Lounge,Casual Dining",227 votes,"PaneerTikka,Mocktails,VirginMojito,Chocolava"
28,22.5419254,88.3858001,The GRID," Haute Street Corporate Park, 86A Topsia Road (South), Kolkata",Topsia,1800," Continental, Burger, Italian, Pizza","                                12 Noon to 12 Midnight (Mon, Tue, Wed, Thu, Sun), 12...",4.3,"Microbrewery,Casual Dining",670 votes,"ThinCrustPizza,Mocktails,CraftBeer,Stout,BrewedBeer,Mudpie,TandooriAloo"
29,22.5382752,88.3653259,Chili's Grill & Bar," 4th Floor, Quest Mall, 33, Syed Ali Amir Avenue, Ballygunge, Kolkata","Quest Mall, Ballygunge",1700," American, Mexican, Italian, Burger",                                12 Noon to 11:30 PM (Mon-Sun),4.9,"Casual Dining,Bar",4352 votes,"TomatoSoup,Sangria,SantaFeSalad,Mocktails,Fajitas,Fajita,ChickenNachos"
30,22.568872355,88.433740139,10 Downing Street," Ground Floor, Plot G2, Block GP, PS Srijan Corporate Park, Sector 5, Salt Lake","Sector 5, Salt Lake",1900," North Indian, Chinese, Continental","                                12 Noon to 11:45 PM (Mon, Tue, Wed, Thu, Sun), 12...",4.1,Pub,1042 votes,"Mocktails,VirginMojito,Margarita,PaneerTikka,Spaghetti,LongIslandIcedTea,Lasagne"
31,22.5532075477,88.3532001078,Mocambo," 25B Park Street, Park Street Area, Kolkata",Park Street Area,1100, Continental,                                11 AM to 11:20 PM (Mon-Sun),3.9,Casual Dining,4800 votes,"MuttonCutlets,SeaFood,ButterNaan,PaneerTikka,BloodyMary,Risotto,DeviledCrab"
32,22.5690129134,88.4339614213,Kareem's," PS Srijan Corporate Park, Plot G-2, Block GP, Retail Unit 2, Tower 1, Sector 5, Salt Lake, Kolkata","Sector 5, Salt Lake",1250," Biryani, Beverages, North Indian, Hyderabadi, Mughlai, Kebab","                                12 Noon to 3:30 PM, 7 PM to 11:30 PM (Mon-Sun)",4,Casual Dining,658 votes,"Firni,ChickenTikkaMasala,Mocktails,NihariGosht,MurghMalaiKebab,PaneerTikka,ShahiTukda"
33,22.5182102,88.3577631,Hatari," 113/1B, Rash Behari Avenue, Near Triangular Park, Gariahat, Kolkata",Gariahat,1100," Chinese, North Indian, Seafood",                                11:30 AM to 10:30 PM (Mon-Sun),4.3,Casual Dining,3483 votes,"Noodles,CrispyChicken,MasalaKulcha,SweetCornSoup,Momos,MongolianChicken,GravyChowmein"
34,22.5151186,88.367753,Santa's Fantasea," 9, Ballygunge Terrace, Near Anjali Jewellers, Golpark, Kolkata",Golpark,800," Seafood, Chinese","                                12 Noon to 4 PM, 6 PM to 10:30 PM (Mon-Sun)",4.3,Casual Dining,2959 votes,"SeaFood,Noodles,ShanghaiSquid,JumboLobster,BansaPora,SoruChakli,OnionKheer"
35,22.5065462685,88.3626267314,Blue Mug," 1/121, Jodhpur Park, Kolkata",Jodhpur Park,700," Cafe, Continental, Italian, Salad",                                11 AM to 11 PM (Mon-Sun),4.1,Cafe,1137 votes,"Coffee,OreoShake,Americano,ChickenCordonBleu,ChickenSteak,Mocktails,ChickenBbqBurger"
36,22.5385075,88.3515194,Oh! Calcutta," 4th Floor, Forum Mall, 10/3, Elgin Road, Elgin, Kolkata","Forum Mall, Elgin",1400," Bengali, Seafood","                                12:15 PM to 3:30 PM, 7 PM to 11 PM (Mon-Fri),12 Noon...",4.2,Fine Dining,1314 votes,"DaabChingri,NolenGurerIceCream,BhapaMurgi,JumboPrawns,Luchi,SeaFood,PrawnMalaiCurry"
37,22.5370959,88.3591818,Mainland China," Uniworth House, 3A, Gurusaday Road, Ballygunge, Kolkata",Ballygunge,1700, Chinese,"                                12:30 PM to 3 PM, 7 PM to 11 PM (Mon-Thu),12:30 PM...",4.3,Fine Dining,1636 votes,"JumboPrawns,Mocktails,Mousse,SeaFood,Brownie,Dimsum,HotChocolate"
38,22.538813,88.32219,India Restaurant," Ground Floor, 1st Floor, 2nd Floor, 34, Karl Marx Sarani, Kidderpore, Kolkata",Kidderpore,850," Biryani, North Indian, Chinese, Mughlai",                                11 AM to 11 PM (Mon-Sun),4.7,Casual Dining,1660 votes,"Firni,ShahiTukda,Haleem,MuttonBiryani,MuttonChaap,Phirni,ChickenTikka"
39,22.544266,88.352308,Monkey Bar," 901A, 9th Floor, 6, Camac Street Area, Kolkata",Camac Street Area,1500," American, Asian, European, North Indian","                                12 Noon to 12 Midnight (Mon, Tue, Wed, Thu, Sun), 12...",4.2,"Bar,Casual Dining",599 votes,"Tikki,Nachos,Mojito,ButterChickenKhichdi,Sangria,GingerBeer,KeemaGhotala"
40,22.5488315,88.400401,Sigree Global Grill," 1st Floor, Silver Spring Arcade, EM Bypass, Science City Area, Kolkata","Silver Spring Arcade, Science City Area",1600, North Indian,"                                12:30 PM to 3:30 PM, 7 PM to 11 PM (Mon-Sun)",4.2,Casual Dining,1840 votes,"Phirni,Mudpie,Chaat,Spaghetti,ChickenCurry,ButterNaan,MuttonBiryani"
41,22.5432608,88.3520505,Afra Tafri," 9, Camac Street Area, Kolkata",Camac Street Area,1000," Bengali, Continental, Asian, Italian, North Indian, Chinese",                                12:30 PM to 12 Midnight (Mon-Sun),4,Casual Dining,393 votes,"Mocktails,ButterChicken,HerbChicken,FarmhousePizza,PaneerMakhanwala,ChocolateFondue,CreamCheeseBrownie"
42,22.5171909,88.3609265,The Feast Street," 66/2C,  Purna Das Road, Hindustan Park, Kolkata",Hindustan Park,700," North Indian, Mughlai, Biryani, Lebanese","                                12 Noon to 11 PM (Mon-Fri),12 Noon to 12 Midnight...",4.3,Casual Dining,902 votes,"Firni,Shawarma,Rabri,PanneerButterMasala,StuffedKulcha,DhaniaChicken,MurghMalai"
43,22.5779139,88.400581,Flame N Grill Restaurant," 4th Floor, Mani Square Mall, 164/1, E.M. Bypass, Kankurgachi, Kolkata","Mani Square Mall, Kankurgachi",1500," North Indian, Continental","                                12:30 PM to 3:30 PM, 7 PM to 11 PM (Mon-Sun)",4,"Casual Dining,Bar",1237 votes,"PrawnCurry,ShahiTukda,PrawnKebab,Mousse,MuttonSeekhKebab,GulabJamun,MuttonBiryani"
44,22.5382752,88.3653259,The Irish House," 5th Floor, Quest Mall, 33, Syed Ali Amir Avenue, Ballygunge, Kolkata","Quest Mall, Ballygunge",1900," European, American","                                12 Noon to 11:30 PM (Mon, Tue, Wed, Thu, Sun), 12...",4.4,"Pub,Casual Dining",2499 votes,"DrunkenMushrooms,OnionRings,Chaat,MurghPlatter,Nachos,CubanMojito,Margarita"
45,22.5156703,88.348712,Tandoor House," 2B, Parashar Road, Near Lake Mall, Lake Market Area, Kolkata",Lake Market Area,600," Continental, Biryani, North Indian, Chinese, Mughlai",                                12:30 PM to 10 PM (Mon-Sun),3.6,Casual Dining,1288 votes,"VegThali,ChickenKebab,TandooriChicken,DalMakhani,RoastChicken,Noodles,ChickenWings"
46,22.5151450055,88.3571486548,Fusion Fantasea," 14B, Anil Roy Road, Southern Avenue, Kolkata",Southern Avenue,700," Cafe, Goan, Kerala, Mughlai, Seafood","                                12 Noon to 11 PM (Mon-Fri),12 Noon to 5 PM, 6 PM to...",4.1,"Casual Dining,Cafe",392 votes,"BambooBiryani,SeaFood,MurghGheeRoast,PrawnGheeRoast,SquidKoliwada,MuttonBalls,Mocktails"
47,22.5349915,88.3536437,My Big Fat Belly,,,,,,,,,"KiwiDrink,MousseCake,VirginMojito,ButterscotchShake,ButterChickenRisotto,Tiramisu,ChickenWings"
48,22.5385538,88.3652501,Nawwarah Fine Dine & Lounge,,,,,,,,,"MilkyWay,MasalaChaiIceCream,MushroomBurger,Mocktails,SpringRoll,Nachos,DumBiryani"
49,22.5514587155,88.3538448438,Mamagoto," 24, Park Street, Annex Building, Magma House Complex, Park Street Area, Kolkata",Park Street Area,1500," Asian, Thai, Chinese, Salad",                                12 Noon to 11:30 PM (Mon-Sun),4.3,Casual Dining,635 votes,"KhauSuey,Noodles,Dumplings,Sangria,CoconutIceCream,PapayaSalad,CrispyLotusStem"
50,22.5534159322,88.3520316705,Olypub," 21, Park Street, Park Street Area, Kolkata",Park Street Area,1100," Continental, North Indian",                                11 AM to 11 PM (Mon-Sun),3.5,"Bar,Casual Dining",3277 votes,"BeefSteak,ChickenAlaKiev,MuttonSteak,MuttonCutlets,TandooriChicken,ChickenButterMasala,FingerChips"
51,22.5779132,88.4005052,Haka," 4th Floor, Mani Square Mall, 164/1, EM Bypass, Kankurgachi, Kolkata","Mani Square Mall, Kankurgachi",900, Chinese,"                                12:30 PM to 3 PM, 7 PM to 11 PM (Mon-Fri),12:30 PM...",3.9,Casual Dining,2100 votes,"SeaFood,Noodles,Mousse,CaramelCustard,Momos,ButterPudding,ChickenDrumsticks"
52,22.5379599453,88.3498426527,TGI Fridays," Forum Mall, 10/3, Elgin Road, Elgin, Kolkata",Elgin,1800," Mexican, American",                                12 Noon to 12 Midnight (Mon-Sun),4.1,"Casual Dining,Bar",1201 votes,"Cosmopolitan,ChocolateMilkshake,Mojito,BeefSteak,Mocktails,CaesarSalad,Fajitas"
53,22.5528743795,88.352550678,Flurys," 18, Park Street Area, Kolkata",Park Street Area,1350," Bakery, Continental, Cafe, Desserts",                                7:30 AM to 9:45 PM (Mon-Sun),3.9,"Bakery,Cafe",3258 votes,"EnglishBreakfast,Coffee,BaconSandwich,ChocolateMousse,MuttonPuffs,MuttonPatty,SpinachQuiche"
54,22.5367630668,88.3513269201,The Belgian Waffle Co.,,,,,,,,,"Coffee,ChocolateOverload,BlueberryCheesecake,BelgianWaffles"
55,22.5108447747,88.3482638374,The Steak Factory," 50, Lake Place, Southern Avenue, Kolkata",Southern Avenue,1000," Italian, Continental",                                12 Noon to 10:30 PM (Mon-Sun),4,Casual Dining,1645 votes,"Pinacolada,ChickenSteak,TenderloinSteak,Mousse,Mocktails,ChickenSoup,SpaghettiCarbonara"
56,22.5468092,88.3531126,Shisha - Bar Stock Exchange," 5th Floor, Westside Building, Block D, 22, Camac Street Area, Kolkata",Camac Street Area,1500, Finger Food,"                                3 PM to 12 Midnight (Mon, Tue, Wed, Thu, Sun), 3 PM...",3.6,Bar,490 votes,"PeriPeriPotatoWedge,LongIslandIcedTea,KungPaoChicken"
57,22.5148736898,88.3932954445,Asia Kitchen by Mainland China," 4th Floor, Acropolis Mall, 1858/1, Rajdanga Main Road, Kasba, Kolkata","Acropolis Mall, Kasba",1800," Asian, Chinese","                                12:30 PM to 3:30 PM, 7 PM to 11 PM (Mon-Sun)",4.4,Casual Dining,1240 votes,"JumboPrawns,KaffirLime,TomKhaSoup,KingPrawnTempura,SpringRoll,Momos,Brownie"
58,22.5691717381,88.4329780564,Pour House," 1st Floor, Plot L1, Meghatherm Tower, Block GP, Near RDB Cinema, Sector 5, Salt Lake","Sector 5, Salt Lake",1500," Italian, Mexican, Chinese, North Indian, Continental","                                12 Noon to 12 Midnight (Mon, Tue, Wed, Thu, Sun), 12...",3.9,"Lounge,Bar",724 votes,"PaneerTikka,LongIslandIcedTea,Mojito,Mocktails,PaneerLababdarPlatter,KitKatShake,PepperPrawns"
59,22.5778193,88.4004294,Chapter 2," 4th Floor, Mani Square Mall, 164/1, E.M. Bypass,  Kankurgachi, Kolkata","Mani Square Mall, Kankurgachi",1500," Continental, Chinese, Seafood",                                12:30 PM to 11 PM (Mon-Sun),3.8,"Casual Dining,Cocktail Bar",855 votes,"CreamChickenSoup,Mocktails,RoastBeef,FruitCustard,Nachos,Spaghetti,Tiramisu"
60,22.5472117,88.3506485,Gabbar's Bar & Kitchen," 11/1, Ho Chi Minh Sarani, Camac Street Area, Kolkata",Camac Street Area,1400," North Indian, Chinese, Mexican, Italian","                                12:30 PM to 4:30 PM, 5:30 PM to 11 PM (Mon-Sun)",4.5,"Casual Dining,Bar",1907 votes,"CheloKebab,Panipuri,ChocolateCake,Papri,ChipotleChicken,ChilliGarlicNoodles,LimeMojito"
61,22.5752877431,88.4325639904,Rang De Basanti Dhaba," DN 37, Sector 5, Salt Lake","Sector 5, Salt Lake",700, North Indian,                                11 AM to 1 AM (Mon-Sun),3.8,Casual Dining,1886 votes,"Rajma,BhejaFry,ButterChicken,MurghKalimirch,Lassi,ChikenRoll,Firni"
62,22.5379955,88.3489724,The Bikers Cafe,,,,,,,,,"PeriPeriBurger,CoffeeHazelnut,Falafel,Mocktails,Chaat,Pancakes,ChocolateWaffles"
63,22.5125984574,88.3513222262,Macazzo," 64, Southern Avenue, Kolkata",Southern Avenue,500," Cafe, Italian, American","                                Closed (Mon),12 Noon to 9:30 PM (Tue-Sun)",4.4,Cafe,710 votes,"FrenchFries,HotChocolate,ChocolateSundae,OreoShake,BrownieShake,KiwiMojito,Mocktails"
64,22.5332189,88.3532644,Jai Hind Dhaba," 41/1A, Sarat Bose Road, Paddapukur, Kolkata",Paddapukur,450," North Indian, Chinese",                                12 Noon to 2 AM (Mon-Sun),3.9,Dhaba,1703 votes,"ChickenBharta,MuttonKeema,TandooriChicken,DalMakhani,ChanaMasala,MixVeg,Lassi"
65,22.514647593,88.3532111719,Tolly Tales," 34, Dr. Sarat Banerjee Road, Southern Avenue, Kolkata",Southern Avenue,900," North Indian, Chinese, Continental, Salad",                                12 Noon to 11 PM (Mon-Sun),3.9,"Casual Dining,Bar",605 votes,"PorkChops,ChickenBharta,ChilliChicken,Mocktails,HunanChicken,CrispyChilliBabycorn,BeerBatterFish"
66,22.5951974,88.419798,Chowman," BF 198, Sector 1, Salt Lake","Sector 1, Salt Lake",1100," Seafood, Chinese",                                12 Noon to 10:30 PM (Mon-Sun),4.1,Casual Dining,2061 votes,"Noodles,JumboPrawns,LemonChicken,ChickenShumai,CrispyChilliBabycorn,KungPaoChicken,TalumeinSoup"
67,22.5593145,88.353171,Blue And Beyond," The Lindsay, 8A & 8B, Lindsay Street, New Market Area, Kolkata","Hotel Lindsay, New Market",1600," Continental, North Indian, Chinese, Kebab, Thai",                                12 Noon to 11 PM (Mon-Sun),3.9,"Casual Dining,Bar",1474 votes,"TeriyakiChicken,KungPaoChickenSizzler,Mocktails,CrispyChicken,HotChocolateFudge,SweetCornSoup,AfghaniGosht"
68,22.5163739723,88.3602821454,Zucca Lounge," P 264C, Hemanta Mukhopadhay Sarani, Southern Avenue, Kolkata",Southern Avenue,1000, Cafe,"                                12 Midnight to 1 AM, 12 Noon to 12 Midnight (Mon-Sun)",3.8,Cafe,521 votes,"PassionFruitMojito,Mocktails,Brownie,ManchowSoup,MushroomSoup,WatermelonMojito,Nachos"
69,22.5457770253,88.3874780685,Golden Joy," 50/1, Matheswartala Tala Road, Near Gobinda Khatick Post Office, Tangra, Kolkata",Tangra,900, Chinese,                                12 Noon to 11 PM (Mon-Sun),3.9,"Casual Dining,Bar",1511 votes,"JumboPrawns,BbqChicken,Brownie,Noodles,ChickenHoney,Mocktails,RoastChicken"
70,22.5876802,88.4079601,Afraa Restaurant And Lounge," 6th and 7th Floor, Block G, City Centre 1, Salt Lake Sector 1, Sector 1, Salt Lake","City Centre 1, Sector 1, Salt Lake",1800," Continental, Italian, Mediterranean","                                12:30 PM to 3 PM, 7 PM to 11 PM (Mon-Sun)",4.3,"Fine Dining,Lounge",1914 votes,"Tiramisu,VirginMojito,Brownie,ChocolatePaan,Nachos,Cheesecake,MuttonBiryani"
71,22.546592337,88.3881787956,Big Boss," 54C, Matheswartala Road, Tangra, Kolkata",Tangra,1000, Chinese,                                12 Noon to 10:30 PM (Mon-Sun),3.6,"Casual Dining,Bar",1628 votes,"Noodles,DragonChicken,FruitCocktail,DragonFish,PrawnPapad,ShanghaiChicken,Momos"
72,22.5707994,88.4010322,Beer Republic," 89C, Maulana Abul Kalam Azad Sarani, Near Swabhumi, Kankurgachi, Kolkata",Kankurgachi,2000," Chinese, Continental, North Indian, Beverages, Pizza, Italian, Salad, Desserts","                                12 Noon to 12 Midnight (Mon, Tue, Thu, Sun), 12 Noon...",3.4,"Microbrewery,Casual Dining",722 votes,"BrunetteBeer,CraftBeer,WheatBeer,CrispyChilliBabycorn,Fries,GarlicChicken,FishFingers"
73,22.506624,88.3670922,Tandoor Park," 28/4, Gariahat Road, Near Jodhpur Park Post Office, Dhakuria, Kolkata",Dhakuria,900," North Indian, Chinese",                                12 Noon to 10:30 PM (Mon-Sun),3.9,"Casual Dining,Bar",1287 votes,"Mocktails,KeemaNaan,Shawarma,MurghMusallam,MasalaKulcha,TandooriChicken,MurgReshmiKabab"
74,22.5532961034,88.3532376587,Tung Fong," Ground Floor, 25 B, Karnani Mansion, Free School Street, Park Street Area, Kolkata",Park Street Area,1000, Asian,"                                12 Noon to 4 PM, 6 PM to 11 PM (Mon-Sun)",4.2,Casual Dining,2405 votes,"Mocktails,JumboPrawns,Noodles,KungPaoChicken,ChickenLungFungSoup,ManchowSoup,ClearSoup"
75,22.5532961034,88.3532376587,Kabuliwala,,,,,,,,,"Firni,Buttermilk,Phirni,BhunaChicken,ChickenBiryani,Chaach,BhunaGosht"
76,22.5371103,88.3514435,Fabbrica Della Pizza," 8A, Allenby Park, Elgin, Kolkata",Elgin,800," Italian, Pizza",                                12:30 PM to 10:45 PM (Mon-Sun),4.5,Casual Dining,338 votes,"Tiramisu,QuattroFormagio,Spaghetti,StrawberryShake,DessertPizza,IceTea,VeggieWrap"
77,22.5952496,88.4061604,Fly Kouzina," AD - 73, Near BD Market Bus Stop, Sector 1, Salt Lake City, Kolkata","Sector 1, Salt Lake",1100," Continental, North Indian, Chinese",                                12 Noon to 10:45 PM (Mon-Sun),4.2,Casual Dining,954 votes,"MinestroneSoup,Mocktails,Brownie,OrangeMojito,MushroomSoup,SpringRoll,Crepe"
78,22.569028703,88.4332040325,Chai Break," K1, RDB Boulevard, Block EP & GP, Sector 5, Salt Lake","RDB Boulevard, Sector 5",1000," Cafe, Fast Food, Italian, Mediterranean, Continental, Salad",                                12 Noon to 12 Midnight (Mon-Sun),3.8,"Cafe,Casual Dining",1189 votes,"Mocktails,MixSaucePasta,ChocolateTart,ShanghaiChicken,ChocolatePastry,VirginMojito,MuttonRoganjosh"
79,22.6232005,88.4419121,Aminia," 201/1, Rajarhat Road, Meena Tower Central Area, Chinar Park",Rajarhat New Town,600," Mughlai, Biryani, North Indian, Rolls",                                11 AM to 11 PM (Mon-Sun),3.8,Casual Dining,1350 votes,"Firni,MuttonBiryani,MuttonKasha,KaathiRoll,Phirni,ChickenTandooriButterMasala,MuttonRezala"
80,22.5041525764,88.3633227646,Abar Baithak," 282, Jodhpur Park, Kolkata.",Jodhpur Park,550, Cafe,                                9 AM to 10 PM (Mon-Sun),4,Cafe,1307 votes,"MurghPlatter,MeatPlatter,CaramelPudding,HotChocolate,Mocktails,ChickenWrap,Lassi"
81,22.5385075,88.3515194,Cafe Mezzuna," 4th Floor, Forum Mall, 10/3, Elgin Road, Elgin, Kolkata","Forum Mall, Elgin",1600," Italian, Mediterranean, Salad",                                12 Noon to 11 PM (Mon-Sun),4.4,"Bar,Casual Dining",2342 votes,"Martini,Mocktails,Risotto,FudgeCake,Tiramisu,MashedPotato,AlmondBiscotti"
82,22.5724395235,88.436092101,Paris Cafe," Block EP XI-I, South City Pinnacle, Sector 5, Salt Lake","Sector 5, Salt Lake",1000," Cafe, Bakery, Desserts, Italian, Continental",                                8:30 AM to 10 PM (Mon-Sun),4.1,"Cafe,Bakery",891 votes,"Coffee,RainbowCake,ChickenSteak,JumboPrawns,Macaroon,MushroomCrepe,HotChocolate"
83,22.517227,88.36714,Momo I Am," 43 Ballygunge Gardens, Gariahat, Golpark, Kolkata",Golpark,550," Tibetan, Chinese, Asian",                                12 Noon to 11 PM (Mon-Sun),4.3,Casual Dining,237 votes,"Momos,Noodles,ChickenKothey,LemongrassChicken,CrispyChicken,PorkRibs,TempuraFish"
84,22.5463176769,88.3615159616,Shiraz Golden Restaurant," 135, Park Street, Park Street Area, Kolkata",Park Street Area,550," Biryani, Mughlai, North Indian",                                12 Noon to 11:30 PM (Mon-Sun),4,Casual Dining,1491 votes,"Firni,MuttonBiryani,BrainMasala,ChickenTikka,MuttonChaap,ChickenReshmiButterMasala,MuttonHaleem"
85,22.502039,88.3540231,Hondo's," 58/100, Prince Anwar Shah Road, Kolkata",Prince Anwar Shah Road,700," Continental, American, Fast Food",                                24 Hours (Mon-Sun),4,Casual Dining,506 votes,"BeefSteak,PorkChops,JackedPotato,PorkRibs,Mojito,BrownieChocolate,BltBurger"
86,22.5513686104,88.3539303392,Marco Polo," 24, Park Centre Building, Park Street, Park Street Area, Kolkata",Park Street Area,1200," Continental, North Indian, Chinese",                                12 Noon to 10:45 PM (Mon-Sun),4.1,Casual Dining,1015 votes,"Brownie,SeekhKebab,IceCreamSandwich,JumboPrawns,Noodles,DalMakhani,Mousse"
87,22.5685717328,88.4345816821,Opium,,,,,,,,,"Omelette,CrispyChilliBabycorn,MuttonPatiyala,CrispyChicken,ChickenBharta,ChickenSalad,TandooriChicken"
88,22.5506530314,88.3540460095,What's In D Name," 1/1, Camac Street, Park Street Area, Kolkata",Park Street Area,1500, Finger Food,                                2:30 PM to 11:45 PM (Mon-Sun),3.6,Pub,349 votes,"Nachos,Fries,CheesyPizza,LongIslandIcedTea,WhiteSaucePasta,HarissaChicken,TandooriPlatter"
89,22.5734116398,88.4371371567,Raize The Bar," DP 5, Godrej Waterside, Near College More, Sector 5, Salt Lake","Sector 5, Salt Lake",1800," North Indian, Chinese, Italian","                                12 Noon to 11:30 PM (Mon, Tue, Wed, Thu, Fri, Sun)...",4.1,Pub,525 votes,"Mocktails,Mojito,BasilChicken,MeatPizza,TeriyakiChicken,CheloKebab,Nachos"
90,22.5734116398,88.4371371567,Raize The Bar," DP 5, Godrej Waterside, Near College More, Sector 5, Salt Lake","Sector 5, Salt Lake",1800," North Indian, Chinese, Italian","                                12 Noon to 11:30 PM (Mon, Tue, Wed, Thu, Fri, Sun)...",4.1,Pub,525 votes,"Mocktails,Mojito,BasilChicken,MeatPizza,TeriyakiChicken,CheloKebab,Nachos"
91,22.5878029,88.4085996,Kaafila," 3rd Floor, Block B, City Centre 1, Sector 1, Salt Lake","City Centre 1, Sector 1, Salt Lake",1500," Mughlai, Afghani, North Indian","                                12:30 PM to 3:15 PM, 7 PM to 10:30 PM (Mon-Sun)",4.3,"Casual Dining,Bar",1982 votes,"KeemaNaan,KabuliTandooriMurgh,Firni,PineappleRaita,TehariMurgh,Margarita,AfghanChicken"
92,22.5171445,88.3452905,Bachan's Dhaba," T 39A, Rash Behari Avenue, Kalighat, Kolkata",Kalighat,350," Chinese, North Indian",                                11 AM to 12 Midnight (Mon-Sun),3.7,Dhaba,926 votes,"Kulcha,TandooriChicken,KulfiFaluda,PaneerTikka,Lassi,ChickenTikkaMasala,ChickenChaap"
93,22.5406599288,88.3655915782,Royal Indian Restaurant," 24A, Syed Amir Ali Avenue, Park Circus Area, Kolkata",Park Circus Area,750," Biryani, North Indian, Mughlai",                                11 AM to 11:30 PM (Mon-Sun),3.8,Casual Dining,682 votes,"MuttonChaap,Firni,ShahiTukda,MuttonBiryani,ChickenChaanp,AwadhiBiryani,Phirni"
94,22.5146460443,88.3532762155,Xrong Place," 25, Sarat Banerjee Road, Southern Avenue, Kolkata",Southern Avenue,1200," Finger Food, Chinese",                                2 PM to 12 Midnight (Mon-Sun),3.8,Pub,1371 votes,"LongIslandIcedTea,Cosmopolitan,PorkChops,DraughtBeer,Fries,ChickenSteak,ChickenSausages"
95,22.553576323,88.351893872,Rajdhani Thali," 21, Park Street, Near Samsung Showroom, Park Street Area, Kolkata",Park Street Area,850," Rajasthani, Gujarati","                                12 Noon to 3:30 PM, 7 PM to 11 PM (Mon-Sun)",3.9,Casual Dining,605 votes,"Kheer,Jalebi,RajasthaniThali,Halwa,Dhokla,Aamras,KesariaLassi"
96,22.5934218,88.4060013,CALCUTTA 64," BC 25, Sector 1, Salt Lake","Sector 1, Salt Lake",450, Cafe,                                11:30 AM to 11 PM (Mon-Sun),4.4,Cafe,716 votes,"MochaFrappe,Mocktails,Momos,ChickenBbqBurger,Brownie,HotChocolate,ChocolateMousse"
97,22.5468617,88.3532164,TFO - The Factory Outlet," 5th Floor, Westside Building, Block D, 22, Camac Street Area, Kolkata","Pantaloons, Camac Street Area",1200," European, Mediterranean",                                12 Noon to 12 Midnight (Mon-Sun),4.1,"Bar,Casual Dining",1099 votes,"Nachos,Momos,PeriFries,Sangria,Mojito,Risotto,MushroomSoup"
98,22.5163730431,88.3670550585,The Whistling Kettle," 23/3, Gariahat Road, Near Mouchak Sweets, Golpark, Kolkata",Golpark,600," Cafe, Continental, Tea","                                12 Noon to 10 PM (Mon),9 AM to 10 PM (Tue-Fri),8 AM...",4.1,Cafe,444 votes,"PorkPlatter,Lasagne,ChocolateShake,Pancakes,VietnameseCoffee,JumboSandwich,ChickenSalamiSandwich"
99,22.5896056561,88.4085605666,Balle Balle Dhaba," DC 27/26, Near City Centre 1, Sector 1, Salt Lake","Sector 1, Salt Lake",600, North Indian,                                12 Noon to 2 AM (Mon-Sun),3.8,"Casual Dining,Dhaba",1399 votes,"ChickenTarka,TandooriChicken,Firni,ChickenReshmiMasala,ButterChicken,Phirni,MurghMalai"
100,22.5382752,88.3653259,Yauatcha," Level 5, Quest Mall, 33, Syed Amir Ali Avenue, Ballygunge, Kolkata","Quest Mall, Ballygunge",2000," Tea, Desserts, Chinese",                                12 Noon to 11:30 PM (Mon-Sun),4.4,"Fine Dining,Bar",1074 votes,"Dumplings,RaspberryDelice,DimSums,LycheeMartini,KungPaoChicken,SeafoodNoodles,SweetCornChickenSoup"
101,22.5146770165,88.3467229083,The Palms," 1st Floor, 19A, Meghnad Saha Sarani, Southern Avenue, Kolkata",Southern Avenue,1100," Asian, Awadhi, North Indian, Mughlai","                                12 Noon to 5 PM, 6 PM to 11 PM (Mon-Sun)",4.7,Casual Dining,742 votes,"KeemaNaan,Noodles,MasalaKulcha,KungPaoChicken,Brownie,GajarKaHalwa,GulabJamun"
102,22.5245087,88.3684187,Kasturi Restaurant," 13/6B, Anil Moitro Road, Near Patha Bhabvan Montessori School, Ballygunge, Kolkata",Ballygunge,650," Bengali, Bangladeshi",                                11:45 AM to 11 PM (Mon-Sun),3.8,Casual Dining,827 votes,"BhetkiPaturi,MocharGhonto,KochuPataChingriBhapa,JhuriAluBhaja,KoshaMangsho,MuttonKosha,MuttonDakBunglow"
103,22.5521358952,88.3525067568,OTT - Over the Top," 6th Floor, The Myx, 20G, Near Loreto House, Park Street Area, Kolkata","The Myx, Park Street Area",1000, Finger Food,                                4 PM to 12 Midnight (Mon-Sun),3.6,Lounge,638 votes,"PeriPeriChicken,Mojito,Risotto,Mocktails,CrispyChilliBabycorn,GarlicBread,FrenchFries"
104,22.5705373753,88.4336224571,Jaisalmer," Podium Floor, Globsyn Crystal, EP & GP Block, Sector 5, Salt Lake","Globsyn Crystals, Sector 5",900," North Indian, Chinese",                                11 AM to 12 Noon (Mon-Sun),3.7,"Casual Dining,Bar",1597 votes,"Shawarma,VegStarter,KadhaiPaneer,PanneerButterMasala,MuttonRaraPunjabi,PaneerKulcha,ChickenBiryani"
105,22.5348515,88.3536058,The Dugout,,,,,,,,,"KitKatShake,Mocktails,MexicanRice,PastaAlfredo,PotatoWedges,Nachos,VegPlatter"
106,22.5294655,88.368739,Bohemian," 32/4, Old Ballygunge, 1st Lane, Near Bondel Road, Ballygunge, Kolkata",Ballygunge,1700," Bengali, Continental, Seafood",                                12 Noon to 11 PM (Mon-Sun),4.3,Casual Dining,1579 votes,"TenderCoconutMousse,JumboPrawns,Mocktails,RoastChicken,KachaLonkaMangsho,CheesecakeMalpua,LemonPie"
107,22.5168238,88.3628565,Saptapadi," 49B, Purna Das Road, Hindustan Park, Kolkata",Hindustan Park,900, Bengali,"                                12 Noon to 10:45 PM (Mon, Wed, Thu, Fri, Sat, Sun)...",4.1,Casual Dining,557 votes,"Thali,ChickenCurry,BhetkiPaturi,DaabChingri,Luchi,IceCreamPatishapta,Paella"
108,22.5956817519,88.3649394661,Mitra Cafe," 47, Jatindra Avenue, Shobha Bazar, Kolkata",Shobha Bazar,300," North Indian, Fast Food",                                5 PM to 10 PM (Mon-Sun),4,Quick Bites,1055 votes,"BrainChop,FishKaviraji,ChickenKasha,KoshaMangsho,MuttonKaviraji,ChocoPudding,MughlaiParatha"
109,22.5231999,88.365272,Mirch Masala Restaurant & Bar," 49/2, Gariahat Road, Near Pantaloons, Gariahat, Kolkata",Gariahat,800," North Indian, Chinese",                                11 AM to 10:30 PM (Mon-Sun),4,Casual Dining,1375 votes,"DahiKebab,MasalaKulcha,Jalebi,PaneerTikka,HandiGosht,TandooriChicken,SweetCornSoup"
110,22.5042678016,88.338079825,The Love Room," 36, Tollygunge Circular Road, Tollygunge, Kolkata",Tollygunge,800," North Indian, Continental, Salad",                                12 Noon to 10 PM (Mon-Sun),4.3,Casual Dining,303 votes,"Nachos,Spaghetti,Brownie,PeriPeriChickenPizza,Mocktails,NutellaWaffle,Coffee"
111,22.5516086,88.3536058,SpiceKlub," 1st Floor, 24, Park Street, Annex Building, Magma House Complex, Park Street Area, Kolkata",Park Street Area,2100, North Indian,"                                12 Noon to 4 PM, 6:30 PM to 11:30 PM (Mon-Sun)",4.4,Casual Dining,376 votes,"CheesePapad,PapadPlatter,VadaPav,Panipuri,ChocolatePaan,MalaiKofta,Chaat"
112,22.5382752,88.3653259,Bombay Brasserie," 5th Floor, Quest Mall, 33, Syed Ali Amir Avenue, Ballygunge, Kolkata","Quest Mall, Ballygunge",1900, North Indian,                                11:30 AM to 11 PM (Mon-Sun),4.2,"Casual Dining,Bar",955 votes,"KaaliDal,VegetableBiryani,ChurChurParatha,SubzShikampuriKebab,Phirni,PrawnPulav,ChickenShorba"
113,22.5904993347,88.4121097997,Noir," Hotel Golden Tulip, DD 19, Sector 1, Salt Lake","Sector 1, Salt Lake",800," Cafe, North Indian, Fast Food",                                1 PM to 1 AM (Mon-Sun),3.2,Cafe,72 votes,Mocktails
114,22.5656029371,88.3510023728,Bhojohori Manna," 11A, Esplanade East, Esplanade, Kolkata",Esplanade,550, Bengali,                                12 Noon to 10:30 PM (Mon-Sun),3.4,Casual Dining,429 votes,"VetkiPaturi,ChickenDakBunglow,MuttonDakBunglow,ChanarDalna,DaabChingri,KatlaKalia,BasantiPulao"
115,22.5024508244,88.3595468849,Hanglaatherium," 188/3/1A, Prince Anwar Shah Road, Near Sanghati Park, Prince Anwar Shah Road, Kolkata",Prince Anwar Shah Road,500," Biryani, North Indian, Mughlai",                                1 PM to 10:30 PM (Mon-Sun),4.1,Casual Dining,1341 votes,"MuttonHanglabari,Phirni,ChickenChaap,MuttonChaap,MuttonBiryani,ChickenTikkaMasala,ButterNaan"
116,22.4916371,88.3473462,The Chaiwala," 6/1/2, Graham's Land, N.S.C Bose Road, Tollygunge, Kolkata",Tollygunge,400," Cafe, Fast Food","                                4 PM to 10 PM (Mon),11 AM to 10 PM (Tue-Sun)",4.5,Cafe,1158 votes,"Mocktails,SmoothieChocolate,Chai,BaconTornadoBurger,GrilledChickenBurger,Waffles,HotChocolate"
117,22.5524377,88.4060653,Byepass Dhaba," 1/A, Sector B, Metropolitan CHS, Science City Area, Kolkata",Science City Area,800," North Indian, Chinese, Indian, Kebab",                                12 Noon to 2:30 AM (Mon-Sun),3.6,Casual Dining,745 votes,"ChickenDumBiryani,MurgReshmiKabab,ChickenBharta,DahiKebab,ManchowSoup,PaneerTikka,TandooriChicken"
118,22.5146816624,88.3534666523,The Wall," 31, Dr. Sarat Banerjee Road, Near Russa Telephone Exchange, Sarat Bose Road, Southern Avenue, Kolkata",Southern Avenue,1400," Chinese, Japanese, Seafood, Thai","                                12:30 PM to 3:30 PM, 7 PM to 10:45 PM (Mon-Sun)",4,"Casual Dining,Bar",1125 votes,"Sushi,SpicyChicken,TreasureMushroom,ChickenLemonCorianderSoup,ChickenLungFungSoup,SweetCornSoup,Kimchi"
119,22.5726088703,88.4328184649,Dum Laga K Haisha,,,,,,,,,"TandooriChicken,PrawnBiryani,VirginMojito"
120,22.6772522,88.4463671,Sher-e-Punjab," 151, Sukanta Nagar, Near Micheal Nagar Post Office, Barasat, Kolkata",Barasat,650," North Indian, Chinese",                                11 AM to 12 Midnight (Mon-Sun),3.5,Casual Dining,877 votes,"TandooriChicken,PaneerTikka,SarsonKaSaag,MasalaKulcha,LimeSoda,ChickenBharta,Lassi"
121,22.5450469,88.3547717,Hindusthan Dhaba,,,,,,,,,"JeeraRice,TandooriChicken,ButterChicken,DalMakhani,MasalaChaach,ChickenBharta,MurghBanjara"
122,22.5160509359,88.3924066275,Punjabee Rasoi," 196, Chakraborty Para, Rajdanga, Near Water Tank, Kasba, Kolkata",Kasba,800, North Indian,"                                Closed (Mon),11 AM to 10:30 PM (Tue-Sun)",4.4,Casual Dining,1299 votes,"DalMakhani,LehsuniKebab,MushroomTikka,KabuliNaan,PaneerPulao,ChickenTikkaButterMasala,MuttonKosha"
123,22.5131618488,88.3491003513,The Coastal Macha,,,,,,,,,"Appam,CoconutPudding,MurghGheeRoast,GheeRoastMutton,SeaFood,MalabariParatha,KokumSharbat"
124,22.6222262,88.4458585,Tamara - Pipal Tree Hotel," RGM-AS/465, Hatiara, Major Arterial Road","Pipal Tree Hotel, Rajarhat New Town",1800," North Indian, Chinese, Mexican, Thai, Continental","                                12 Noon to 3:30 PM, 7:30 PM to 11 PM (Mon-Sun)",4.3,"Casual Dining,Bar",1162 votes,"ChocolatePaan,FruitSalad,Lassi,ChocolateSamosa,PaneerLababdar,Mocktails,ButterChicken"
125,22.516926,88.3669567,Koshe Kosha," 62, Ballygunge Gardens, , Golpark, Kolkata, Near Golpark Post Office",Golpark,650, Bengali,                                11 AM to 11 PM (Mon-Sun),3.5,Casual Dining,802 votes,"KoshaMangsho,KoshaMurgi,MuriGhonto,DhokarDalna,ChitalMacherMuitha,MoshlaMurgi,MuttonKosha"
126,22.5170041,88.3601028,Cafe Drifter," 7, Jatin Bagchi Road, Hindustan Park, Kolkata",Hindustan Park,800," Cafe, Continental",                                11 AM to 11 PM (Mon-Sun),4.1,Cafe,263 votes,"ChocolateShake,ChickenBurger,KitKatShake,ChickenLasagne,CaesarSalad,PorkChops,Brownie"
127,22.5779132,88.4005052,Machaan," 4th Floor, Mani Square Mall, 164/1, E.M. Bypass, Kankurgachi, Kolkata","Mani Square Mall, Kankurgachi",1300, North Indian,"                                12:30 PM to 3:30 PM, 7 PM to 11 PM (Mon-Sun)",3.9,Casual Dining,1196 votes,"TandooriChicken,MuttonBiryani,DhaniaChicken,Rabri,MultaniParatha,Raan,Malpua"
128,22.5523281802,88.3527367562,KFC," 20K, Park Street, Park Street Area, Kolkata",Park Street Area,500," Burger, Fast Food",                                11 AM to 11 PM (Mon-Sun),3.8,Quick Bites,1124 votes,"ZingerBurger,VirginMojito,ChickenBurger,SaucyChicken,CrispyChicken,ChickenBucket,ChocoLash"
129,22.5849115,88.3917176,Honey Da Dhaba," P54, VIP Road, Scheme VII M, Opposite ESI Hospital, Kankurgachi, Kolkata",Kankurgachi,600," Biryani, North Indian, Mughlai",                                11 AM to 12 Midnight (Mon-Sun),3.7,Dhaba,1095 votes,"TandooriChicken,MuttonRoganjosh,PaneerTikka,Kulfi,ButterChicken,Lassi,ChickenBharta"
130,22.5149087,88.3933049,Barcelos,,,,,,,,,"PeriPeriChicken,BlueberryCheesecake,KiwiKooler,CheesecakeShake,PeriPeriSizzler,Mocktails,KalaKhatta"
131,22.5622436,88.3512159,Aaheli - The Peerless Inn," The Peerless Inn Hotel, 12, Jawaharlal Nehru Road, Esplanade, Kolkata","The Peerless Inn, Esplanade",2000, Bengali,"                                12:30 PM to 3 PM, 7:30 PM to 11 PM (Mon-Sun)",4,Fine Dining,404 votes,"BhetkiPaturi,BengaliFish,DaabChingri,MocharGhonto,Luchi,MishtiDoi,BonelessHilsa"
132,22.595028,88.405118,Kouzina Mining Co.,,,,,,,,,"DalMakhani,Mocktails"
133,22.5242383,88.3490155,Bon Appetit," 109/26, Hazra Road, Hazra, Kolkata",Hazra,550," Cafe, Italian, Desserts, Salad",                                9 AM to 8:30 PM (Mon-Sun),4.1,Cafe,1884 votes,"ChocolateAvalanche,MidnightCookieShake,ChocoAvalanche,HandBeatenCoffee,CheeseParatha,MasalaTea,Nachos"
134,22.6015043867,88.3736881614,Golbari," New Punjabi Hotel, 211, A.P.C. Road, Shyam Bazar, Kolkata",Shyam Bazar,450," Bengali, North Indian",                                12:30 PM to 11 PM (Mon-Sun),3.7,Quick Bites,1551 votes,"KoshaMangsho,MuttonKosha,MuttonKasha,MuttonCutlets,ChickenKasha,MuttonKeema,MuttonCurry"
135,22.5141387189,88.3559188619,Asia House," 17A, Lake View Road,Near Raymond, Southern Avenue, Kolkata",Southern Avenue,700," Chinese, Thai, Burmese, Vietnamese, Malaysian, Indonesian, Singaporean",                                12 Noon to 10:45 PM (Mon-Sun),4.5,Casual Dining,314 votes,"Noodles,Dumplings,RoastPorkChilli,KungPaoChicken,SweetCornSoup,Momos,BbqChicken"
136,22.5310584743,88.3960309625,Sanjha Chulha," 88, Uttar Panchanna Gram, Ruby Hospital Area, Kolkata",Ruby Hospital Area,900," North Indian, Chinese","                                12 Noon to 3 PM, 7 PM to 11 PM (Mon-Sun)",3.6,Casual Dining,867 votes,"KeemaPulao,MurghAngara,MurghMalai,KadhaiMurgh,ChickenButterMasala,MasalaKulcha,Firni"
137,22.5172294109,88.3610911667,Wise Owl," 66/2B, Purna Das Road, Hindustan Park, Kolkata",Hindustan Park,1000," Cafe, Italian, Continental, Fast Food, Salad",                                7:30 AM to 10:45 PM (Mon-Sun),3.7,Cafe,1573 votes,"Coffee,EggBurger,GingerHoneyTea,ChocolateShake,Mocktails,BreakfastPlatter,ChickenStroganoff"
138,22.5516339713,88.3525744826,Frollz," 2, Middleton Row, Park Street Area, Kolkata",Park Street Area,250, Ice Cream,                                11 AM to 2 AM (Mon-Sun),4.5,Dessert Parlor,193 votes,"IceCreamRoll,Pinacolada,PaanIceCream,Coffee,Brownie,CreamyRoll"
139,22.5163910068,88.3618032932,Mrs. Magpie," 570, Lake Terrace Road Extension, Keyatala, Southern Avenue, Kolkata",Southern Avenue,500," Cafe, Bakery, Desserts","                                9 AM to 11 PM (Mon, Tue, Wed, Fri, Sat, Sun), Closed...",4.1,"Cafe,Bakery",2081 votes,"HotChocolate,Coffee,PeanutButterCupcake,BaconSandwich,CreamCheeseBrownie,Scones,ChickenSlider"
140,22.5364087,88.3648709,Tram Deepo," 45, Fazlul Haque Sarani, Near Ice Skating, 2nd floor,   -19, Ballygunge, Kolkata",Ballygunge,1200," Chinese, Cafe, Continental, North Indian, Finger Food",                                1 PM to 12 Midnight (Mon-Sun),3.9,"Casual Dining,Bar",397 votes,"Mocktails,KitKatShake,Nachos,WatermelonMojito,VirginMojito,PestoPaneerTikka,VegJaipuri"
141,22.5370355782,88.3510861918,The Country House," 4C, Allenby Road, Near Forum Mall, Elgin, Kolkata",Elgin,800," Cafe, Italian, Continental, Bakery, Salad",                                8 AM to 11 PM (Mon-Sun),3.9,"Cafe,Casual Dining",419 votes,"Mocktails,Waffles,CaramelColdCoffee,BrownieShake,Nachos,ExoticVegPizza,VeggiePizza"
142,22.5490211,88.3509124,The Blue Poppy," 1st Floor, Sikkim House, 4/1, Middleton Row, Russel Street, Kolkata, Camac Street Area, Kolkata",Camac Street Area,450," Tibetan, Chinese","                                12 Noon to 4 PM, 5 PM to 9:30 PM (Mon-Sun)",4,Casual Dining,1802 votes,"Noodles,PorkMomo,Thukpa,ChilliPork,VegFriedRice,Dumplings,ChickenPhalay"
143,22.5471307,88.3542573,The Fan's Club," 10, Wood Street, Camac Street Area, Kolkata",Camac Street Area,800," Cafe, Mexican, Italian, North Indian, Chinese, Continental","                                10 AM to 12 Midnight (Mon, Fri, Sat, Sun), 12 Noon...",3.9,Cafe,347 votes,"Momos,CaramelShake,StuffedMushroom,SupremePizza,Nachos,Mocktails,CrispyChilliBabycorn"
144,22.5143830902,88.3508813381,Wabi Sabi," 10, Dr. Sarat Banerjee Road, Southern Avenue, Kolkata",Southern Avenue,800," Healthy Food, Continental, Tea, Beverages, Cafe, Desserts, Sandwich, Salad","                                11:30 AM to 10 PM (Mon-Fri),11 AM to 10:30 PM (Sat-Sun)",4.2,Cafe,177 votes,"Risotto,BroccoliSoup,Mocktails,WholeWheatWrap,VegMomos,MangoBeer,BasilMojito"
145,22.5528564206,88.3527266979,McDonald's," 55, Park Street Area, Kolkata",Park Street Area,400," Burger, Fast Food",                                8 AM to 11 PM (Mon-Sun),3.8,Quick Bites,1020 votes,"FrenchFries,Pancakes,MaharajaBurger,Brownie,McSpicyChicken,IceTea,BigSpicyChickenWrap"
146,22.5531208497,88.3523022383,One Step Up," 18A, Park Street, Park Street Area, Kolkata",Park Street Area,800, Continental,                                12 Noon to 11 PM (Mon-Sun),3.9,Casual Dining,1256 votes,"Pinacolada,ChickenPaprika,VirginMojito,ChickenTetrazzini,Lasagne,ChickenSoup,ChocolateSouffle"
147,22.5222538448,88.3313800022,Desi Lane," 1st Floor, 17/1F, The Enclave Building, Alipore, Kolkata","Enclave, Alipore",1500," North Indian, Chinese, Continental, Italian",                                11:30 AM to 2 AM (Mon-Sun),4.3,"Casual Dining,Bar",362 votes,"PanneerButterMasala,Mocktails,VegPlatter,ChocolateBomb,MuttonBiryani,DalMakhani,BasilMojito"
148,22.5192396,88.3583936,Buddha Bites," 29/1, Panditia Road, Gariahat, Kolkata",Gariahat,1000, Chinese,"                                12 Noon to 10:30 PM (Mon-Fri),12 Noon to 11 PM...",3.8,Casual Dining,947 votes,"ClayPotRice,Noodles,HunanChicken,ChickenSatay,DragonChicken,KungPaoChicken,ManchowSoup"
149,22.583549414,88.4169434756,The Steak & Grill Salt Lake," FE-12, Sector 3, Salt Lake","Sector 3, Salt Lake",1000," Italian, Continental, Cafe",                                7:30 AM to 10:30 PM (Mon-Sun),3.8,"Casual Dining,Cafe",432 votes,"ChickenSteak,TenderloinSteak,ChocolateMonteCarlo,Spaghetti,ChickenWings,PorkRibs,PorkChops"
150,22.622323,88.446237,XII Zodiac?," The Fern Residency Hotel, 204, Main Arterial Road, Noapara, Near City Centre 2",Rajarhat New Town,1100," Chinese, Continental, North Indian",                                7:30 AM to 10:30 PM (Mon-Sun),4.3,Casual Dining,424 votes,"BreakfastBuffet,Brownie,Mocktails,PaneerTikka,GulabJamun,LunchBuffet,AlooPosto"
151,22.5728008172,88.3554404229,Tung Nam," 24, Chattwala Gully, Near Terreti Bazar, Bara Bazar, Kolkata",Bara Bazar,600, Chinese,"                                12 Noon to 3 PM, 6 PM to 10 PM (Mon, Wed, Thu, Fri...",4.3,Casual Dining,759 votes,"Noodles,ClearSoup,ClearBroth,FriedChilliPork,Chowmein,Manchurian,PepperChicken"
152,22.5161495,88.3569249,Paranthe Wali Galli," 104, Lake Terrace",Desapriya Park,500, North Indian,                                9 AM to 9 PM (Mon-Sun),4.2,Casual Dining,427 votes,"CheeseParatha,BadamLassi,MangoLassi,Brownie,AlooParatha,ChocolateParatha,ChickenChettinad"
153,22.5380336466,88.3545502648,Piccadilly Square," 15B, Sarat Bose Road, Elgin, Kolkata",Elgin,880," Italian, Bakery, Desserts, Salad","                                11 AM to 10 PM (Mon-Fri),8 AM to 11 PM (Sat-Sun)",4.2,"Casual Dining,Dessert Parlor",1055 votes,"Waffles,Pancakes,Coffee,Risotto,Cheesecake,HotChocolate,MushroomCrepe"
154,22.5379543712,88.3509721979,Keventers," Fourth Floor, 10/3 Elgin Road, Forum Mall, Elgin, Kolkata","Forum Mall, Elgin",500," Fast Food, Beverages",                                10 AM to 10 PM (Mon-Sun),4.1,Beverage Shop,230 votes,"MintOreoCrumble,Momos,StrawberryShake,ButterscotchShake,ChocoHazelnutShake,BlueberryShake,ThickShakes"
155,22.517417,88.3648709,Kimli," 56G, Purnadas Road, Hindustan Park, Kolkata",Hindustan Park,600, Chinese,                                12:30 PM to 10 PM (Mon-Sun),3.8,Casual Dining,1134 votes,"ThaiChicken,ChilliGarlicNoodles,SweetCornSoup,KonjeeCrispyLamb,SchezwanChicken,HongKongChicken,Momos"
156,22.5877922785,88.4084113687,The Orient," 4th Floor, E Block, City Centre 1, Sector 1, Salt Lake","City Centre 1, Sector 1, Salt Lake",2000," Chinese, Thai, Japanese, Seafood","                                12:30 PM to 10:45 PM (Mon-Thu),12:30 PM to 11:30 PM...",4,Casual Dining,136 votes,"Sushi,ChickenMomo,LunchBuffet,AppleMojito,ChilliChicken,PadThai,JasmineTea"
157,22.5695432572,88.4334692359,The Brewmaster,,,,,,,,,CrispyChilliBabycorn
158,22.5980343,88.4172824,Terminal 11," BF 11, Sector 1, Salt Lake, Kolkata 700 064","Sector 1, Salt Lake",1000," Cafe, American, Beverages, Fast Food, Continental, Desserts, Italian, Salad",                                8 AM to 11 PM (Mon-Sun),4,Cafe,761 votes,"Coffee,Risotto,Tiramisu,HotChocolate,Spaghetti,ChickenLasagne,MangoShake"
159,22.537316,88.344235,Balwant Singh's Eating House," 10/B, Harish Mukherjee Road, Near Bhawanipur Gurudwara, Bhawanipur, Kolkata",Bhawanipur,450, North Indian,                                4 AM to 3 AM (Mon-Sun),3.7,Dhaba,1344 votes,"Lassi,PaneerTikka,DudhCola,PannerTikka,Samosa,MalaiKofta,KesarChai"
160,22.5694030089,88.4333934635,Ocean Grill,,,,,,,,,"SeaFood,ChocolateMousse,JumboPrawns,CocktailPrawn,MuttonCurry,Brownie,Mocktails"
161,22.5338005,88.3647192,Mumbai Local," 19, Ballygunge Park Road, Near Quest Mall, Ballygunge, Kolkata",Ballygunge,1200," North Indian, Chinese, Street Food","                                12:30 PM to 4:30 PM, 5:30 PM to 12:30 AM (Mon-Sun)",4.2,"Casual Dining,Bar",952 votes,"KebabPlatter,VadaPav,ChocolateCake,Khichda,MalaiKofta,DahiKebab,PavBhaji"
162,22.547734,88.3996627,Vintage Asia - JW Marriott Hotel Kolkata," JW Marriott Hotel Kolkata, 4A, J.B.S Haldane Avenue, Science City Area, Kolkata","JW Marriott Hotel Kolkata, Science City Area",3000," Asian, Thai, Chinese","                                7 PM to 11:45 PM (Mon-Fri),12:30 PM to 3 PM, 7 PM to...",4.6,Fine Dining,386 votes,"Mocktails,SpringRoll,JasmineRice,Noodles,TenderCoconutIceCream,Dumplings,RoastChicken"
163,22.5677314732,88.3506855369,Manthan Songhai," 3, Waterloo Street, Esplanade, Kolkata",Esplanade,700," Chinese, North Indian",                                11 AM to 11 PM (Mon-Sun),3.9,"Casual Dining,Bar",246 votes,"DragonChicken,EggHakkaNoodles,SchezwanChicken,PepperChicken,BambooChicken,MixedFriedRice,GarlicChicken"
164,22.5813838,88.4599301,Country Roads," Near Raghudevpur Gram Panchayat Office, Bauria Road, Panchla, Near Andul Road, Howrah",Andul Road,700," North Indian, Chinese, Continental, Thai",                                11 AM to 12 Midnight (Mon-Sun),3.3,Casual Dining,21 votes,"Margarita,CraftBeer,ChickenWings,Salsa,Sangria,ChickenNuggets,ChickenSteak"
165,22.5458669,88.3528781,Cafe 4/1," 4/1, Camac Street, Camac Street Area, Kolkata",Camac Street Area,700," Cafe, Thai, Italian, North Indian, Continental, Salad",                                12 Noon to 10:30 PM (Mon-Sun),3.9,Cafe,724 votes,"GarlicBread,Nachos,Mocktails,PeanutButterChocolateShake,CheesecakeShake,TandooriPlatter,Mojito"
166,22.6227826,88.4427513,Social Kitchen - Holiday Inn," Holiday Inn, Biswa Bangla Sarani, Near Chinar Park, Rajarhat New Town, Kolkata",Rajarhat New Town,2100," North Indian, Asian, European","                                6:30 AM to 11 PM (Mon),6:30 AM to 11:30 PM (Tue-Sun)",4.4,Casual Dining,263 votes,"Brownie,Mousse,DalMakhani,MethiGosht,MuttonRara,Coffee,RaraGosht"
167,22.515575,88.3520295,Overdose,,,,,,,,,"Momos,DevilsChicken,CrispyHoneyChicken,Chowmein,GarlicChicken,Dumplings,ChickenHakkaNoodles"
168,22.5155634,88.3657052,The Grub Club," 131/2, Near HDFC Bank, Golpark, Kolkata",Golpark,450," Chinese, Thai",                                12:30 PM to 10:30 PM (Mon-Sun),3.8,Casual Dining,1605 votes,"Momos,ChickenLasagne,JumboPrawns,Noodles,TempuraChicken,CrispyChicken,HoneyChilliChicken"
169,22.5541466689,88.3513406664,Trincas," 17, Park Street, Park Street Area, Kolkata",Park Street Area,1500," North Indian, Continental, Chinese",                                11:30 AM to 11:30 PM (Mon-Sun),3.8,"Casual Dining,Bar",1021 votes,"CheloKebab,ChickenSandwich,Mocktails,SeekhKebab,Fries,Noodles,MixedGrillSizzler"
170,22.570701,88.405263,Waterside Cafe - Hyatt Regency," Hyatt Regency, JA 1, Sector 3, Salt Lake","Hyatt Regency, Sector 3, Salt Lake",2800," North Indian, Continental, Salad",                                24 Hours (Mon-Sun),4,Fine Dining,662 votes,"BreakfastBuffet,Waffles,Brownie,Coffee,ClubSandwich,LunchBuffet,Chaat"
171,22.533157,88.3471944,Balaram Mullick & Radharaman Mullick Sweets," 2, Paddapukur Road, Bhawanipur, Kolkata",Bhawanipur,300, Mithai,                                7 AM to 11 PM (Mon-Sun),4.5,Sweet Shop,881 votes,"Kheer,ChocolateSandesh,Panchphoron"
172,22.569152,88.432925,The Nox," 2nd Floor,  Megatherm Building,","Sector 5, Salt Lake",700," Continental, Mexican, Cafe, Desserts, Italian, Chinese, Salad",                                10 AM to 12 Midnight (Mon-Sun),3.8,Cafe,40 votes,
173,22.6014016237,88.3721834421,Cafe Coffee O Kobita," 32, Bhupen Bose Avenue, Shyam Bazar, Kolkata",Shyam Bazar,500, Cafe,                                11 AM to 9 PM (Mon-Sun),3.9,Cafe,132 votes,"HotChocolate,VirginMojito,ChickenSandwich,Custard,MintMojito,MurghPlatter,FrenchFries"
174,22.5693677146,88.4292058647,Nalban Food Park - Nom Nom," Near Cognizant, Opposite Dr JJ Medical Center, Nalban Car Parking, Sector 5, Salt Lake","Sector 5, Salt Lake",600," Thai, Chinese, Asian",                                11 AM to 10:30 PM (Mon-Sun),4.4,Casual Dining,106 votes,"Mocktails,CrabMeat,FishGrill,NasiGoreng,ThaiNoodles"
175,22.5429158098,88.3650708944,Kabul Kolkata," 6, Jhowtalla Road, Near 7 Point Crossing, Park Circus Area, Kolkata",Park Circus Area,500," Afghani, Mughlai",                                6 AM to 12 Midnight (Mon-Sun),4.2,Casual Dining,73 votes,"AfghanChicken,MuttonPulao,MuttonKeema,KabuliPulao,KabuliNaan,KadhaiMurgh,AfghaniPulao"
176,22.5413097,88.3524298,Milee Droog Cafe & Bistro," Ground Floor, 3, Gorky Terrace, Gorky Sadan, Minto Park, Kolkata",Minto Park,700," Cafe, Russian, Tea","                                11:30 AM to 10:30 PM (Mon-Sat),12:30 PM to 10:30 PM...",4.2,Cafe,164 votes,"Mocktails,TenderloinSteak,HotChocolate,VegLasagna,CaramelCustard,ChickenTetrazzini,BeefSteak"
177,22.5422852,88.351764,Kaidi Kitchen," 1st Floor, Usha Kiran Building, 12A, Camac Street, Camac Street Area, Kolkata",Camac Street Area,1300," North Indian, Italian, Mexican, Chinese, Thai, Mongolian",                                12 Noon to 11 PM (Mon-Sun),3.8,Casual Dining,1127 votes,"PaneerKebab,TomatoSoup,CrispyBabycorn,HyderabadiBiryani,Mocktails,PaneerRoganjosh,PaneerBaraMasala"
178,22.7610609877,88.3702810854,Dada Boudir Hotel," 1, Ghosh Para Road, Barrackpore, Kolkata",Barrackpore,350," Mughlai, Biryani",                                11:30 AM to 9 PM (Mon-Sun),3.8,Quick Bites,1041 votes,"MuttonBiryani,ChickenChaap,ChickenBiryani"
179,22.58448,88.409839,Baker's Nest," EC 263, Near EC Local Market, Sector 1, Salt Lake, Kolkata","Sector 1, Salt Lake",500," Continental, Seafood, Beverages, Cafe, Desserts, Sandwich, Kebab",                                11 AM to 11 PM (Mon-Sun),4.1,Cafe,183 votes,"ChickenFingers,ChickenStroganoff,Pancakes,ChickenSteak,CheesePancake,FishGrill,ChickenPastaSalad"
180,22.5220722,88.3652781,China Whites," 14/6, Gariahat Road, Near Pantaloons, Gariahat, Kolkata",Gariahat,1000," Chinese, North Indian",                                12 Noon to 11 PM (Mon-Sun),3.6,Casual Dining,1137 votes,"Mocktails,Manchurian,HunanChicken,TandooriChicken,KungPaoChicken,CrispyChilliBabycorn,CrispyChicken"
181,22.5259640596,88.3958720416,Shimla Biryani," 610, V.I.P. Nagar, Ruby Hospital Area, Kolkata",Ruby Hospital Area,550," Biryani, North Indian",                                11 AM to 12 Midnight (Mon-Sun),3.7,Casual Dining,274 votes,"MuttonBiryani,Firni,GajarKaHalwa,PaneerKofta,ChickenBharta,TandooriChicken,MuttonStew"
182,22.5464136686,88.3871417865,Beijing," 77/1, Christopher Road, Tangra, Kolkata",Tangra,1800, Chinese,                                12 Noon to 10:30 PM (Mon-Sun),3.7,Casual Dining,1517 votes,"Noodles,CrispyChicken,ThaiSoup,ChickenHoney,GoldenFriedPrawns,SpringChicken,SweetCornSoup"
183,22.57413515,88.3645481989,Paramount Sherbats & Syrups," 1/1/1D, Bankim Chatterjee Street, College Square, College Street, Kolkata",College Street,350, Beverages,"                                11:30 AM to 10 PM (Mon-Sat),Closed (Sun)",4.6,Beverage Shop,2218 votes,"Chaat,CoconutSherbet,KesarMalai,GrapesCrush,Mocktails,MalaiSherbat,FruitJuices"
184,22.5722317869,88.4322954342,Bakstage," EN 1, Sector 5, Salt Lake","Sector 5, Salt Lake",1800," Continental, North Indian, Italian, Salad","                                3 PM to 12 Midnight (Mon, Tue, Wed, Thu, Fri, Sun)...",3.5,"Pub,Casual Dining",1463 votes,"ThaiGreenCurry,ChickenSalad,VegPlatter,ChilliChicken,Bruschettas,GalautiKebab,CaesarSalad"
185,22.515582,88.361735,Kaffiesta Steaks,,,,,,,,,"PorkRibs,GarlicBread,TenderloinSteak,ChickenGrill,ChickenSteak"
186,22.5552539133,88.3721438795,CIT Cafe," P/18A, C.I.T. Road, Park Circus Area, Kolkata",Park Circus Area,500," Chinese, Seafood","                                11:45 AM to 10:30 PM (Mon-Fri),11:45 AM to 11 PM...",3.9,Casual Dining,861 votes,"ChickenThaiSoup,CaramelCustard,ButterNoodles,ShanghaiChicken,ChickenDrumsticks,PepperChicken,LemonChicken"
187,22.499825055,88.3175109699,Haji Saheb," 474, Diamond Harbour Road, Near Tram Depot Bazaar, Behala, Kolkata",Behala,800," Mughlai, North Indian, Chinese, Rolls",                                11 AM to 11 PM (Mon-Sun),3.7,Casual Dining,1000 votes,"ChikenRoll,MuttonBiryani,ButterChicken,Haleem,MuttonRoll,Chaap,ChickenEggRoll"
188,22.5143217,88.3625953,Bijoli Grill," 1/7, Ashoke Nagar, Tollygunge, Kolkata",Tollygunge,500," Bengali, Continental, Chinese",                                11:30 AM to 10:30 PM (Mon-Sun),3,Quick Bites,11 votes,"Luchi,Malpua,DhokarDalna,ChickenKaviraji,KoshaMangsho,ShahiTukda,WholeBhetki"
189,22.5585159,88.3508365,SOI," 26, Jawaharlal Nehru Road, Near Indian Museum, New Market Area, Kolkata",New Market Area,1200," Finger Food, Asian, Chinese, Thai",                                12:30 PM to 12 Midnight (Mon-Sun),4.5,"Casual Dining,Pub",276 votes,"TempuraPrawns,PapayaSalad,HakkaNoodles,Mocktails,TomYumSoup,LemonChicken,Margarita"
190,22.633212698,88.4687171504,Reflexion," The Majestic Suites, Star Residency, 3, Chotopol, Raigachi, Rajarhat, Kolkata",Rajarhat New Town,800," North Indian, Chinese, Continental",                                12 Noon to 11 PM (Mon-Sun),4.3,Casual Dining,512 votes,"ButterscotchIceCream,VegStarter,KoshaMangsho,Mocktails,MuttonPasindaKebab,ChickenKebab,KastooriKebab"
191,22.5176763,88.3628987,Sienna Store & Cafe," 49/1, Hindustan Park, Kolkata",Hindustan Park,500," Cafe, Healthy Food, Salad, Juices","                                Closed (Mon),11:30 AM to 10 PM (Tue-Sun)",3.8,Cafe,333 votes,"Coffee,MasalaChai,HotChocolate,Cappuccino,StuffedCapsicum,ChickenSandwich,TunaSandwich"
192,22.503404,88.3962388,Wasabee," 30, Arya Vidyalaya Road, Kalikapur, Kolkata",Kalikapur,1500," Burmese, Singaporean, Chinese, Japanese, Thai",                                11 AM to 11 PM (Mon-Sun),3.7,Casual Dining,452 votes,"Noodles,SweetCornSoup,PadThaiNoodle,TeriyakiChicken,MisoSoup,ChilliPork,ChickenCurry"
193,22.5804917836,88.4373470396,Azad Hind Dhaba," Satya Narayanan Apartment, 222, Nayapatti, Near Technopolis, Sector 5, Salt Lake","Sector 5, Salt Lake",550," North Indian, Chinese, Rolls",                                12 Noon to 11 PM (Mon-Sun),2.3,Dhaba,537 votes,"MalaiKofta,ChikenRoll,TandooriChicken,PanneerButterMasala,Roganjosh,ChickenButterMasala,Noodles"
194,22.5521349663,88.3525084332,Aaira,,,,,,,,,"Pinacolada,HaraBharaKebab,GulabJamun,ChickenRosaliKebab,MasalaKulcha,RumaliRoti,HyderabadiBiryani"
195,22.5184407,88.3522117,Tamarind," 177, Sarat Bose Road",Desapriya Park,1100," South Indian, North Indian","                                12 Noon to 3:30 PM, 7 PM to 11 PM (Mon-Sun)",4,Casual Dining,852 votes,"Buttermilk,Appam,MuttonRara,ButterChicken,MassaStew,Kulfi,HyderabadiBiryani"
196,22.5450636,88.3982979,Peshawri - ITC Sonar," ITC Sonar, J.B.S. Haldane Avenue, E.M. Bypass, Science City Area, Kolkata","ITC Sonar, Science City Area",2500, North Indian,"                                12:30 PM to 2:45 PM, 7 PM to 11:45 PM (Mon-Sun)",4.2,Fine Dining,531 votes,"DalBukhara,Mocktails,MurghKhurchan,KakoriKebab,PudinaParatha,SeekhKebab,Margarita"
197,22.5256711,88.3525816,The Corner Courtyard," 92B, Sarat Bose Road, Near Hazra, Hazra, Kolkata","The Corner Courtyard, Hazra",1500," Continental, Seafood, Italian, European",                                8 AM to 12 Midnight (Mon-Sun),4,"Casual Dining,Bar",1087 votes,"ChocolateCake,CrabCake,CaliforniaPizza,Macaroon,Cappuccino,PestoPizza,MushroomSoup"
198,22.568943563,88.4348036349,Barcode,,,,,,,,,"Dj,Decor"
199,22.5538611866,88.3514885232,Roxy - The Park," The Park, 17, Park Street, Park Street Area, Kolkata","The Park, Park Street",2500, Finger Food,                                5:30 PM to 12 Midnight (Mon-Sun),3.9,Club,570 votes,"Dj,Decor,LadiesNight"
200,22.546895,88.354314,Konetto Pizza,,,,,,,,,"ChickenMexicana,BarbequeChicken,ConePizza"
201,22.5896774725,88.408533074,Since 2016," Andromeda Building, 3rd Floor, DD 30, Near City Centre 1, Sector 1, Salt Lake","Sector 1, Salt Lake",1000," North Indian, Chinese",                                12 Noon to 11 PM (Mon-Sun),3.6,Casual Dining,398 votes,"Mocktails,GulabJamun,MurghPatiala,LunchBuffet,SweetCornSoup,Brownie,Kulcha"
202,22.6308106826,88.3792346343,FoodPath," 2C, Kali Charan Ghosh Road, Sinthee More, Sinthi, Kolkata",Sinthi,400," Cafe, Italian",                                12 Noon to 9:30 PM (Mon-Sun),3.8,Cafe,490 votes,"Momos,KitKatShake,ChickenPastaSalad,CheloKebab,Coffee,Spaghetti,Lasagne"
203,22.5442901,88.3521734,Urban Desi," 9th Floor, Fort Knox, 6 Camac Street Area, Kolkata","Fort Knox, Camac Street Area",1500," Continental, Pizza, North Indian, Chinese","                                12 Noon to 12 Midnight (Mon-Sat),12:30 PM to 12...",3.7,Lounge,584 votes,"Mocktails,Nachos,VirginMojito,Noodles,VegPlatter,Martini,FishTikka"
204,22.5412219671,88.3658933267,Zeeshan," 17, Syed Amir Ali Avenue, Park Circus Area, Kolkata",Park Circus Area,400," North Indian, Biryani, Rolls, Chinese",                                7 AM to 12 Midnight (Mon-Sun),3.8,Casual Dining,881 votes,"Firni,MuttonTikka,MuttonChaap,ChikenRoll,TandooriChicken,Phirni,ButterNaan"
205,22.5489665,88.3999273,JW Lounge - JW Marriott Hotel Kolkata," JW Marriott Hotel Kolkata, 4A, J.B.S Haldane Avenue, Science City Area, Kolkata","JW Marriott Hotel Kolkata, Science City Area",1000, Fast Food,                                9 AM to 12 Midnight (Mon-Sun),3.9,Lounge,75 votes,"Cappuccino,HotChocolate"
206,22.614992,88.411994,NH Sky Lounge," 4th & 5th Floor, 166, Jessore Road, Near Diamond Plaza Mall, Nagerbazar, Kolkata",Nagerbazar,1000," North Indian, Chinese, Continental",                                12 Noon to 12 Midnight (Mon-Sun),3.9,Casual Dining,56 votes,RooftopAmbience
207,22.5248309,88.3523539,BJs Sports Restrau Cum Lounge,,,,,,,,,"CaesarSalad,Mocktails,Brownie,BlackberryMojito,ButterNaan,ChickenBurger,CheeseBalls"
208,22.5248309,88.3523539,Drunken Monkey,,,,,,,,,
209,22.5762818198,88.3634015545,Indian Coffee House," 15, Bankim Chatterjee Street, College Street, Kolkata",College Street,200," Cafe, Chinese, Fast Food","                                9 AM to 9 PM (Mon-Sat),9 AM to 1 PM, 5 PM to 9 PM (Sun)",3.3,Cafe,2149 votes,"ChickenKaviraji,ChickenSandwich,MuttonKaviraji,Noodles,MughlaiParatha,Chowmein,ChickenOmelette"
210,22.5537020347,88.351675272,Hakuna Matata," Ground Floor, 12D,   Park Street Area, Park Street Area, Kolkata",Park Street Area,800," Continental, Mexican, Italian, North Indian","                                12 Noon to 11 PM (Mon-Thu),12 Noon to 11:30 PM...",3.9,Casual Dining,860 votes,"CaesarSalad,MushroomSoup,CreamyPestoPasta,Mocktails,CornSoup,CannelloniSpinach,Nachos"
211,22.5622505,88.3518987,Threesixtythree - The Oberoi Grand," The Oberoi Grand, 15, Jawaharlal Nehru Road, New Market Area, Kolkata","The Oberoi Grand, New Market Area",3500," North Indian, Bengali, European, Asian, Japanese",                                6:30 AM to 12 Midnight (Mon-Sun),4.6,Fine Dining,90 votes,"Sushi,Tiramisu,Brownie,Mousse,LambShank,Risotto,CremeBrulee"
212,22.5572606164,88.4129553661,Mom's Kitchen," RA 305, Ward 18, Opposite Ekta Sangha Club, Sector 4, Salt Lake","Sector 4, Salt Lake",550," Bengali, North Indian, Chinese, Mughlai",                                12 Noon to 11 PM (Mon-Sun),3.7,Quick Bites,70 votes,ChickenBharta
213,22.6237294132,88.3536215499,The Mill," 212,Forum Rangoli Mall, Girish Ghosh Road, Belur, Howrah",Belur,1000," North Indian, Chinese",                                12 Noon to 10:30 PM (Mon-Sun),3.9,Casual Dining,48 votes,"Mocktails,SweetCornSoup,Noodles"
214,22.5670466299,88.349690102,Chittoda's Suruchee Restaurant," 2, Dacres Lane, Near Pearless Bhawan, Esplanade, Kolkata",Esplanade,300," North Indian, Chinese","                                12 Noon to 9 PM (Mon-Sat),Closed (Sun)",4.2,Casual Dining,370 votes,"FishFry,ChickenStew,ChickenBharta,ChickenKasha,ChilliChicken,MuttonBiryani,Chowmein"
215,22.517706,88.3543455,Burnt Garlic,,,,,,,,,"StrawberryMojito,BlueberryCheesecake,ChickenSatay,KungPaoChicken,LavaCake,BbqChickenPizza,MashedPotato"
216,22.618889,88.468293,Throttle Shrottle," Akhanka, Near Eco Park, Rajarhat New Town, Kolkata",Rajarhat New Town,500," Cafe, Fast Food",                                24 Hours (Mon-Sun),4.1,Cafe,72 votes,Fries
217,22.6160106,88.4120905,Noodle Oodle," 965, Jessore Road, Kolkata Near Diamond Plaza, Jessore Road, Jessore Road, Nagerbazar, Kolkata",Nagerbazar,600, Chinese,                                12:30 PM to 10:30 PM (Mon-Sun),3.7,Casual Dining,477 votes,"PadThaiNoodle,Manchurian,ChickenManchowSoup,FishChilli,KungPaoChicken,ChickenHakkaNoodles,SweetCornSoup"
218,22.5422961817,88.3611803502,8th Day Cafe & Bakery,,,,,,,,,"Coffee,Macchiato,Cappuccino,CinnamonRoll,Bagel,HotChocolate,Omelette"
219,22.558189,88.354138,Raj Spanish Cafe," Ground Floor, 7, Sudder Street, New Market Area, Kolkata",New Market Area,600," Cafe, Spanish, Italian, Mexican, Salad, Juices",                                8 AM to 10 PM (Mon-Sun),3.9,Cafe,736 votes,"Croissants,ChickenSalad,Tiramisu,ChocolateSouffle,Coffee,RoastChicken,PatataBravas"
220,22.5767499095,88.4338504449,Liqua - Rooftop Poolside Bar,,,,,,,,,"Mocktails,GrilledChickenSatay"
221,22.4967133,88.3705592,Cantonese Restaurant," 7, First Floor, Raja S.C. Mullick Road, Near Jadavpur University, Jadavpur, Kolkata",Jadavpur,600," Chinese, Thai",                                12 Noon to 10:30 PM (Mon-Sun),4.1,Casual Dining,193 votes,"PrawnChip,BarbequeChicken,HunanChicken,ChickenHakkaNoodles,MangoCooler,PrawnWafers,Momos"
222,22.5686995979,88.4349317104,Preach," P.S. Srijan Corporate Park, Block GP, Plot 2, Tower 2, Unit 3, Sector 5, Salt Lake","Sector 5, Salt Lake",800," North Indian, Continental, Chinese",                                12 Noon to 11 PM (Mon-Sun),3.6,"Casual Dining,Bar",184 votes,"PorkRibs,VegThali,LimeSoda,TandooriChicken,PorkChops,JeeraRice,VirginMojito"
223,22.5675695508,88.3517490327,Amber," 11, Waterloo Street, Esplanade, Kolkata",Esplanade,1100," North Indian, Continental","                                12 Noon to 3 PM, 7 PM to 11 PM (Mon-Sun)",3.9,"Casual Dining,Bar",935 votes,"ReshmiMurgh,VegAugratin,TandooriChicken,ChickenButterMasala,CocktailPrawn,PanneerButterMasala,PindiChana"
224,22.516779,88.362353,No Junktion Bistro," 49A Purna Das Road., Hindustan Park, Kolkata",Hindustan Park,800," Healthy Food, American, Lebanese, European, Italian, Asian",                                12 Noon to 11 PM (Mon-Sun),4.3,Casual Dining,46 votes,"ChocolatePizza,SweetPotatoFries,Risotto,Brownie,WholeWheatPizza,Burrito,Tiramisu"
225,22.48711,88.37489,Chez - Pan Oriental Kitchen,,,,,,,,,GoldenFriedPrawn
226,22.4872412995,88.3614753932,Denzong Kitchen," 31A, Shyama Prasad Mukherjee Road,  Hazra, Kolkata 700025",Hazra,300," Chinese, Tibetan",                                12 Midnight to 10 PM (Mon-Sun),4,Quick Bites,251 votes,"SteamChickenMomos,Thukpa,DragonChicken,ChickenMomo,JuicyMomos,ChickenChow,Noodles"
227,22.5183474817,88.3591294661,MUD," 174E, Rash Behari Avenue, Hindustan Park, Kolkata",Hindustan Park,550," Cafe, Fast Food",                                10:30 AM to 9:30 PM (Mon-Sun),4,Cafe,959 votes,"Mudcake,Mocktails,HotChocolate,DahiChicken,ChocolateMudCake,ChickenKasha,Brownie"
228,22.5537556014,88.3515743539,Tantra - The Park," The Park, 17, Park Street, Park Street Area, Kolkata","The Park, Park Street",3500, Finger Food,"                                Closed (Mon),7 PM to 12 Midnight (Tue-Sun)",3.4,Club,490 votes,"DanceFloor,LiveDj"
229,22.5325994,88.3648248,Haldiram Food City," Second Floor, 24, Ballygunge Park, Ballygunge, Kolkata",Ballygunge,300," Mithai, North Indian, Street Food",                                10 AM to 10 PM (Mon-Sun),3.7,"Casual Dining,Sweet Shop",882 votes,"CholeBhature,Chaat,PavBhaji,Thali,Kulfi,DahiPhuchka,Dhokla"
230,22.530814,88.368859,You Are Next,,,,,,,,,
231,22.5468637,88.3532314,We.Desi,,,,,,,,,"MuttonSeekh,Chaat,LacchaParatha,LimeSoda,ButterNaan,Shikanji,Kulcha"
232,22.494162,88.369501,Cafe : Plot 15,,,,,,,,,"JackedPotato,Coffee,ChickenSteak,CheeseBalls"
233,22.5876926008,88.3675710484,Girish Chandra Dey & Nakur Chandra Nandy," 56, Ramdulal Sarkar Street, Hedua Park, Hatibagan, Kolkata",Hatibagan,100, Mithai,                                7 AM to 10:30 PM (Mon-Sun),4.9,Sweet Shop,894 votes,"ChocolateSandesh,MangoSandesh,ButterscotchSondesh,ChocolateBall,NolenGur,NakurChandraNandy,MalaiRoll"
234,22.5836079222,88.416415751,Oye Balle Balle Dhaba," FE 16, Sector 3, Salt Lake Salt Lake City, Near Central Park, Sector 3","Sector 3, Salt Lake",1000," North Indian, Chinese",                                12 Noon to 2 AM (Mon-Sun),4,Casual Dining,269 votes,"Lassi,Phirni,Firni,GulabJamun,ChickenTikkaMasala,StuffedMushroom,ChickenBharta"
235,22.5191674,88.3630504,Bedouin - Sher e Bengal," 200/2B, Gariahat Road, Gariahat, Kolkata",Gariahat,500," Chinese, North Indian, Bengali, Biryani",                                10:30 AM to 10:30 PM (Mon-Sun),3.6,Casual Dining,739 votes,"Firni,TandooriChicken,CrispyChicken,SweetCornSoup,Chaap,ButterNaan,Noodles"
236,22.5580737,88.3531126,Blue Sky Cafe," 3, Sudder Street, New Market Area, Kolkata",New Market Area,650," Cafe, Chinese, Italian, North Indian, Juices",                                8 AM to 10 PM (Mon-Sun),4,Cafe,849 votes,"ChocolateMilkshake,ChocolateShake,TaiPaiChicken,ChickenCheeseSandwich,ShanghaiChicken,Cappuccino,ChocolatePudding"
237,22.5686671,88.3491347,The Chutney Co.," 1st Floor, Center Point, 21, Hemanta Basu Sarani, Dalhousie BBD Bagh, Kolkata",Dalhousie BBD Bagh,400, South Indian,"                                12 Noon to 10 PM (Mon-Fri),10 AM to 10 PM (Sat-Sun)",4.1,Casual Dining,454 votes,"Upma,MysoreDosa,RavaDosa,PaperMasalaDosa,PizzaUttapam,FilterCoffee,Waffles"
238,22.525663,88.354602,Cafe ICanFlyy," 4B Valmikee Street, Near Maddox Square, Ballygunge, Kolkata",Ballygunge,500, Cafe,"                                Closed (Mon),11:30 AM to 9 PM (Tue-Sun)",4.1,Cafe,65 votes,"Brownie,HotChocolate,ChocoFrappe,FrenchFries,ChickenPoppers"
239,22.502161828,88.3557743579,Xis O Krim," 369, Prince Anwar Shah Road, Kolkata Near Lords More, Prince Anwar Shah Road",Prince Anwar Shah Road,300, Ice Cream,"                                1 PM to 12:30 AM (Mon-Thu),1 PM to 2 AM (Fri-Sun)",4.1,Dessert Parlor,145 votes,"IceCreamRoll,LitchiIceCream"
240,22.551507,88.353538,DesiKlub," 1st Floor, 24, Park Street, Annex Building, Magma House Complex, Park Street Area, Kolkata",Park Street Area,700," Street Food, Italian, North Indian, Chinese",                                12 Noon to 12 Midnight (Mon-Sun),3.5,Casual Dining,34 votes,
241,22.5388245403,88.3473237231,Tibetan Delight," 66/1, Chowringhee Road, Elgin, Kolkata",Elgin,300," Tibetan, Chinese","                                Closed (Mon),11:30 AM to 9:30 PM (Tue-Sun)",3.7,Casual Dining,1316 votes,"Noodles,Thukpa,ChilliPork,PanFriedMomos,FriedRiceChicken,ChickenLollipop,Chowmein"
242,22.5388245403,88.3473237231,Heroes Den," 38-A, Dr. Sarat Banerjee Road, Southern Avenue, Kolkata",Southern Avenue,400," Cafe, Fast Food",                                11 AM to 11 PM (Mon-Sun),3.7,Cafe,41 votes,FriendlyStaff
243,22.6202807,88.395702,Darao Pothik Bor,,,,,,,,,"MuttonRara,KashmiriPulao,CheeseNaan,KungPaoChicken,Noodles,MasalaKulcha,GulabJamun"
244,22.5538147415,88.3515431732,The Bridge - The Park,,,,,,,,,"Nachos,Mocktails,Mousse,ChickenSoup,ChickenSausages,Brownie,Tiramisu"
245,22.5425674435,88.3505296335,Wall Street Bar," 1st Floor, Prasad Chambers, Shagun Mall, 10A, Shakespeare Sarani, Camac Street Area, Kolkata",Camac Street Area,1300," Italian, Chinese, Continental",                                2 PM to 12 Midnight (Mon-Sun),3.7,"Casual Dining,Bar",454 votes,"KhauSuey,Risotto,Nachos,Mocktails,Bruschettas,Noodles,ChinesePlatter"
246,22.5849399834,88.4212494269,Solid Gulp (Bapi Dar Momo)," Karunamoyee Bus Stop, Sector 2, Salt Lake","Sector 2, Salt Lake",200," Chinese, Tibetan",                                5 PM to 8:30 PM (Mon-Sun),4.7,Quick Bites,1342 votes,"Momos,ChickenMomo,ChickenFry,ChickenSandwich,ChickenPakora,BabyCornFry,Fries"
247,22.5415348,88.3471185,Saima Restaurant," 59E, Chowringhee Road, Near Rabindra Sadan Metro, Elgin, Kolkata",Elgin,250," North Indian, Street Food, Biryani, Rolls",                                10:30 AM to 10:30 PM (Mon-Sun),3.4,Casual Dining,649 votes,Firni
248,22.5341514,88.3534161,Pepper Chino,,,,,,,,,"DragonRolls,VegPulao,TawaPaneer,BbqChicken,ChickenBharta,DalBukhara,MurghBanjara"
249,22.5153206171,88.3537979051,Ecstasea," P241, Lake Road, Near Lake Road CCD, Southern Avenue, Kolkata",Southern Avenue,600," Seafood, Chinese","                                Closed (Mon),12:30 PM to 4 PM, 6 PM to 10:30 PM...",4,Casual Dining,1191 votes,"SeaFood,Noodles,HoneyChilliSquid,PrawnMomo,CrabMomos,SquidFry,Calamari"
250,22.5530539684,88.3532936499,Golden Dragon," 40A, Park Mansion, 57, Park Street, Park Street Area, Kolkata",Park Street Area,600, Chinese,                                12 Noon to 10:45 PM (Mon-Sun),3.6,Casual Dining,867 votes,"Noodles,KungPaoChicken,ClearSoup,SweetCornChickenSoup,SchezwanChicken,ManchowSoup,ChopSuey"
251,22.553041,88.366948,Zam Zam," 9/1, Noor Ali Avenue, Entally, Park Circus Area, Kolkata",Park Circus Area,200," Mughlai, Biryani",                                11:30 AM to 12 Midnight (Mon-Sun),4,Casual Dining,403 votes,"BeefBiryani,Firni,BeefRoll,BeefBhuna,Phirni,ChickenBiryani,ChickenChaap"
252,22.5995467,88.4698532,Cafe Ekante," Eco Island, Eco Park, Rajarhat New Town, Kolkata","Eco Park, Rajarhat New Town, Kolkata",800, Bengali,"                                Closed (Mon),1 PM to 10:30 PM (Tue-Sun)",3.5,Casual Dining,366 votes,"PrawnPulav,CucumberMojito,Mocktails,NolenGurerIceCream,Coffee,PostoBora,TopseFry"
253,22.4846675958,88.2966802642,The Saffron," 87/A, Ho Chin Min Sarani, Behala, Kolkata",Behala,700," Chinese, North Indian",                                12 Noon to 11 PM (Mon-Sun),3.6,Casual Dining,42 votes,ButterNaan
254,22.5146355138,88.3911644295,Silver Platter,,,,,,,,,"PorkChops,GarlicBread,ChickenStroganoff,GrilledChickenBreast,Mocktails,MashedPotato,PadThai"
255,22.5146355138,88.3911644295,Silver Platter,,,,,,,,,"PorkChops,GarlicBread,ChickenStroganoff,GrilledChickenBreast,Mocktails,MashedPotato,PadThai"
256,22.5344314,88.353492,Pabrai's Fresh and Naturelle Ice Cream," 28, Paddapukur, Kolkata Near Chakraberia, Paddapukur",Paddapukur,200," Ice Cream, Desserts","                                11 AM to 1 AM (Mon-Fri),11 AM to 2 AM (Sat-Sun)",4.5,Dessert Parlor,386 votes,"NolenGur,NolenGurerIceCream,CoconutIceCream,ChocolateBrownieIceCream,CaramelCrunch,Coffee,RichChocolateBrownie"
257,22.5209969,88.353123,Le Chef," Rash Behari Aveneue, Fern Place, Gariahat, Kolkata",Gariahat,500," Chinese, North Indian, Continental",                                12 Noon to 10 PM (Mon-Sun),3.7,Casual Dining,37 votes,CozyPlace
258,22.5605725,88.3516711,Scoop," New Empire Building, 3A, Humayun Place, New Market Area, Kolkata",New Market Area,1100," Fast Food, Chinese, South Indian, Continental, North Indian, Desserts",                                11:45 AM to 10 PM (Mon-Sun),3.7,"Casual Dining,Dessert Parlor",1664 votes,"Manchurian,ChickenKheemaDosa,Momos,Mocktails,ChickenSizzler,ChilliChicken,KitKatShake"
259,22.5145518888,88.3525905758,Fuji," 3rd Floor, 209A, Sarat Bose Road, Southern Avenue, Kolkata",Southern Avenue,1450," Japanese, Sushi","                                12 Noon to 4 PM, 6 PM to 10:30 PM (Mon-Sun)",3.9,"Casual Dining,Bar",382 votes,"KaisenSalad,MisoSoup,TempuraPrawns,Mocktails,PorkCutlet,SushiPlatter,Sashimi"
260,22.5618013,88.353492,Nizam's," 23/24, Hogg Street, New Market Area, Kolkata",New Market Area,550," Fast Food, Mughlai, North Indian",                                11:30 AM to 11 PM (Mon-Sun),3.7,Casual Dining,1513 votes,"KaathiRoll,PaneerRoll,BeefBhuna,Firni,Phirni,ChikenRoll,MuttonRoganjosh"
261,22.4989493744,88.3173235506,Panna's Kitchen," 54/N, Diamond Harbour Road, Behala, Kolkata",Behala,350," North Indian, Fast Food, Rolls",                                12 Noon to 10:45 PM (Mon-Sun),3.6,Quick Bites,710 votes,"MurghLababdar,Panna,Mocktails,Chaap,ChickenButterMasala,Noodles,ChilliChicken"
262,22.5176349,88.3588025,Sudipar Rannaghor," 37/1, Purna Das Road, Near Triangular Park, Hindustan Park, Kolkata",Hindustan Park,750, Bengali,"                                12:30 PM to 4 PM, 7:30 PM to 10:30 PM (Mon-Sun)",1.9,Casual Dining,430 votes,"BasantiPulao,KoshaMangsho,GondhorajBhetki,MuttonKosha,BhetkiPaturi,AaloBhaja,ChingriMalaikari"
263,22.515987,88.3558154,Codfather," P137, Lake Terrace, Desapriya Park, Kolkata",Desapriya Park,850," Italian, Continental, Seafood",                                12 Noon to 11 PM (Mon-Sun),3.6,"Casual Dining,Bar",810 votes,"HerbChicken,HerbyChickenFingers,SeaFood,Mocktails,ChickenBbqWings,SpicyChickenBalls,LambLasagne"
264,22.5182434179,88.3654423803,Thakroon,,,,,,,,,"BhetkiPaturi,ChickenThali,VegThali,Rasgulla,Luchi,FishChop,BasmatiRice"
265,22.5469023,88.3531126,Vaango," 22, Camac Street, Block A, Kolkata, Near Westside Mall, Pantaloons, Camac Street Area, Kolkata","Pantaloons, Camac Street Area",400, South Indian,                                11 AM to 10 PM (Mon-Sun),4.2,Casual Dining,349 votes,"DahiVada,OnionMasalaDosa,MiniIdlis,Buttermilk,Mojito,FilterCoffee,IdliManchurian"
266,22.5015921968,88.3519257233,Crossroad Cafe," 40/1, Prince Anwar Shah Road, Kolkata",Prince Anwar Shah Road,600," Cafe, Salad",                                11:30 AM to 11:30 PM (Mon-Sun),4.1,Cafe,474 votes,"Mojito,Risotto,ChickenBurritos,ChocolateShake,FishGrill,ChickenSteak,BbqChickenPizza"
267,22.5172863,88.3611541,The Wise Owl Steakhouse," Rooftop, 66/2B, Purna Das Road, Hindustan Park, Kolkata",Hindustan Park,1000," Steak, American",                                1:30 PM to 10:45 PM (Mon-Sun),3.7,Casual Dining,395 votes,"PorkChops,MashedPotato,ChickenBbqWings,BeefSteak,JacobeanBurger,IceTea,Spaghetti"
268,22.507281,88.367137,Why Not," 23/13, Gariahat Road, Gariahat, Kolkata",Gariahat,600," Continental, Chinese, Thai",                                11 AM to 11 PM (Mon-Sun),4.2,Casual Dining,72 votes,"PorkChops,Mocktails,GarlicBread,Brownie,OreoShake,VirginMary,ChickenLasagne"
269,22.5171047,88.3524298,Dosa @ Twist," 187, Sarat Bose Road, Lake Market Area, Kolkata",Lake Market Area,300, South Indian,                                11:30 AM to 11:30 PM (Mon-Sun),4.3,Casual Dining,466 votes,"ChocolateDosa,ButtonIdli,MuttonKeema,Coffee,KeemaPav,MuttonDosa,OnionMasalaDosa"
270,22.5136772307,88.3529436216,Mandarin Restaurant," 217, Sarat Bose Road, Southern Avenue, Kolkata",Southern Avenue,700, Chinese,                                12 Noon to 10:30 PM (Mon-Sun),3.6,Casual Dining,543 votes,"GarlicChicken,ClearSoup,CantoneseNoodles,SpringChicken,ChickenHoney,ChickenMushroomSoup,SweetCornChickenSoup"
271,22.5673649029,88.3522200957,New Aliah Hotel & Caterer," 31, Bentinck Street, Esplanade, Kolkata",Esplanade,400," North Indian, Mughlai",                                10 AM to 11 PM (Mon-Sun),3.8,Casual Dining,560 votes,"Firni,Haleem,MuttonStew,ChickenChaap,ChickenBiryani,ChickenTikkaButterMasala,MuttonRezala"
272,22.5446002,88.3545103,Mumble's Lab,,,,,,,,,"BrownieFudge,Tiramisu,NutellaIceCream,LiquidNitrogenIceCream,ThickShakes,FrenchFries,PeanutButterIceCream"
273,22.5529105,88.3626332,Haan 'D' Biryani,,,,,,,,,"ChickenChaap,MuttonBhurjee,ShammiKebabBhurjee,MuttonBiryani,Firni,ShamiKebab"
274,22.5529105,88.3626332,Potstickers,,,,,,,,,"Momos,ChickenShyapta,DragonChicken"
275,22.5689067206,88.434541449,Genuine Broaster Chicken," PS Srijan Corporate Park, Near RDB Cinema, Block EP & GP, Sector 5, Salt Lake","Sector 5, Salt Lake",900," Burger, American, Fusion",                                12 Noon to 11 PM (Mon-Sun),4.2,Casual Dining,209 votes,"Fries,ChocolateSamosa,BuffaloWings,PastaAlfredo,LambBurger,MangoIceCream,ChickenKeema"
276,22.4587688,88.3833055,Hatari," 113/1B, Rash Behari Avenue, Near Triangular Park, Gariahat, Kolkata",Gariahat,1100," Chinese, North Indian, Seafood",                                11:30 AM to 10:30 PM (Mon-Sun),4.3,Casual Dining,3483 votes,"Noodles,CrispyChicken,MasalaKulcha,SweetCornSoup,Momos,MongolianChicken,GravyChowmein"
277,22.5468569,88.3532265,Bombay Shiv Sagar," 1st Floor, Pantaloons Building, Block B, 22, Camac Street Area, Kolkata","Pantaloons, Camac Street Area",650," North Indian, Chinese, South Indian, Fast Food, Juices",                                11 AM to 10:45 PM (Mon-Sun),3.7,Casual Dining,776 votes,"ChineseBhel,FruitJuices,PavBhaji,DahiVada,PaneerTikka,SpringRoll,SevPuri"
278,22.528858,88.350096,The Loop Cafe,,,,,,,,,
279,22.4851840133,88.3145826682,Goin West," 1st Floor, 127C, James Long Sarani, Near Samar Ray Choudhury Park, Barisha, Behala, Kolkata",Behala,550," Continental, American, Italian","                                Closed (Mon-Sat),5 PM to 10:30 PM (Sun)",4.1,Casual Dining,290 votes,"MuttonLasagne,Fries,Spaghetti,PenneAlfredo,ShephardsPie,CheloKebab,CrepeSuzette"
280,22.58904722,88.3690023422,Blossom," 55B, Abheananda Road, Near Hedua Park, Hatibagan, Kolkata",Hatibagan,450," Chinese, North Indian",                                11 AM to 11 PM (Mon-Sun),3.6,Casual Dining,943 votes,"ButterChicken,PrawnManchurian,TandooriChicken,CrispyChicken,CheloKebab,VeggieRoll,ChikenRoll"
281,22.5374598,88.3583473,Domino's Pizza," 62/7, Ballygunge Circular Road, Ballygunge, Kolkata",Ballygunge,700," Pizza, Fast Food",                                11 AM to 11 PM (Mon-Sun),3.7,Quick Bites,330 votes,"GarlicBread,ChocolavaCake,PepperoniPizza,ChickenWings,LavaCake,VeggiePizza,ButterscotchMousseCake"
282,22.5691194158,88.433394134,One Sports Lounge," Ground Floor, Infinity Benchmark, Near RDB Cinema, Sector 5, Salt Lake","Sector 5, Salt Lake",900," Mexican, Italian, North Indian, Chinese","                                12 Noon to 12 Midnight (Mon, Tue, Wed, Thu, Fri...",3.6,Lounge,423 votes,"Mocktails,Spaghetti,PeriPeriPizza,ChickenWings,Fries,Noodles,FishIrani"
283,22.5887497,88.4090303,Jabbrr Afghani," DC 22, Near City Center, Sector 1, Salt Lake","Sector 1, Salt Lake",350," North Indian, Fast Food",                                12:30 PM to 11 PM (Mon-Sun),3.8,Quick Bites,503 votes,"ChikenRoll,MuttonBiryani,ChickenBiryani,CheeseChickenRoll,LacchaParatha,JabbarAfghani,PaneerRoll"
284,22.6327134,88.4322584,The Drunken Monkey," O2 VIP, 643, Ramkrishna Pally, V.I.P. Road, Kaikhali, Kolkata",O2 VIP - VIP Road,1600," Continental, Mexican, Italian, Pizza, Tex-Mex, Salad, European, Finger Food",                                12 Noon to 12 Midnight (Mon-Sun),4,Pub,222 votes,"MezzePlatter,DragonChicken,LongIslandIcedTea,Brownie,Fries,VeggiePizza,DraughtBeer"
285,22.5878197,88.4079411,Kix Lounge," 2nd Floor, Block E, City Centre 1, Sector 1, Salt Lake","City Centre 1, Sector 1, Salt Lake",900, Chinese,"                                12:30 PM to 3 PM, 7 PM to 11 PM (Mon-Sun)",3.6,Lounge,324 votes,"Mocktails,HakaChilliChicken,DraughtBeer,Noodles,PrawnChip,Screwdriver"
286,22.506564,88.367118,The Noodle Hub,,,,,,,,,
287,22.4869291,88.3933537,Red Panda," 1050/2, EM Bypass, Survey Park, Ajoy Nagar, Kolkata",Ajoy Nagar,400," Asian, Chinese, Thai, Japanese","                                12:30 PM to 10:15 PM (Mon-Fri),12:30 PM to 10:30 PM...",4,Casual Dining,179 votes,"Momos,ChickenMomo,ChilliChicken,Chowmein,GarlicChicken,ChickenNoodle,MongolianChicken"
288,22.5309838,88.3531885,Hagen-Dazs," 58/1, Paddapukur, Kolkata Paddapukur",Paddapukur,800," Ice Cream, Desserts, Beverages",                                12 Noon to 1 AM (Mon-Sun),4,Dessert Parlor,175 votes,"Brownie,Coffee,Cheesecake,Waffles,HotChocolate,Tiramisu,BelgianDarkChocolate"
289,22.5768260668,88.3645136654,Dilkhusha Cabin," Building 88, MG Road, Near College Street Crossing, College Street, Kolkata",College Street,300, Fast Food,"                                12:30 PM to 8:30 PM (Mon-Sat),Closed (Sun)",3.7,Quick Bites,518 votes,"ChickenKaviraji,KoshaMangsho,MuttonBreastCutlet,Fries,Chowmein,MuttonKaviraji,MuttonCutlets"
290,22.4669408,88.400581,Chef Alladin,,,,,,,,,"KungPaoChicken,LahoriChicken,Momos,ButterChicken,Chowmein,MuttonKorma,ChikenRoll"
291,22.501984651,88.3574802428,The Brewich Cafe,,,,,,,,,"ChickenSlider,ChickenPatty,HotChocolate,MasalaSoda,Cappuccino,MangoShake,ChocolateShake"
292,22.531424,88.353408,Rustic Kitchen," 52A, Paddapukur, Kolkata Paddapukur",Paddapukur,900," Desserts, North Indian, Chinese",                                12 Noon to 11 PM (Mon-Sun),3.4,Casual Dining,39 votes,Decor
293,22.5804013879,88.4371968359,Haji Ali," 214, Block NP, Near Technopolis, Sector 5, Salt Lake","Sector 5, Salt Lake",500," North Indian, Chinese, Street Food","                                12:15 PM to 11:45 PM (Mon),12:30 PM to 11:45 PM...",3.4,Casual Dining,128 votes,"TandooriChicken,Firni,ButterChicken,ChickenBharta,GulabJamun,ChickenTikkaMasala"
294,22.5469962,88.3531885,Pizza Hut,,,,,,,,,"GarlicBread,Mocktails,TomatoSoup,OnionRings,PotatoWedges,ZestyChicken,TandoorPaneerPizza"
295,22.5607203,88.3515978,New Empire Bar," New Empire Building, 3A, Humayun Place, New Market Area, Kolkata",New Market Area,950," Chinese, North Indian, Continental",                                12 Noon to 10 PM (Mon-Sun),3.6,"Casual Dining,Bar",358 votes,"GarlicChicken,Sangria,FrenchFries,Pakoda,FishFingers,SpringChicken"
296,22.5959094211,88.4163671779,Art of Dining,,,,,,,,,
297,22.623026,88.4503722,Splash - Swissotel Kolkata Neotia Vista,,,,,,,,,"RooftopAmbience,Decor,RomanticPlace"
298,22.4928265,88.3452974,China Town," 257, Deshapran Shashmal Road, Near Tollygunge Tram Depot, Tollygunge, Kolkata",Tollygunge,700," Chinese, North Indian, Rolls",                                12 Noon to 10:30 PM (Mon-Sun),2.9,Casual Dining,171 votes,"Noodles,GarlicChicken"
299,22.5413097,88.3524298,Casa Kitchen," Hotel Casa Fortuna, 234/1, A.J.C. Bose Road, Minto Park, Kolkata",Minto Park,1200," North Indian, Chinese, South Indian, Continental",                                7 AM to 11 PM (Mon-Sun),3.9,"Casual Dining,Bar",699 votes,"Lasagne,KebabPlatter,DalMakhani,KadhaiPaneer,PaneerTikka,Mocktails,Mudpie"
300,22.4614791,88.379297,Red Bamboo Shoot Restaurant," 3, Boral Main Road, Garia, Kolkata",Garia,550," Chinese, Thai",                                12 Noon to 10:30 PM (Mon-Sun),3.9,Casual Dining,387 votes,"ChickenMomo,CrispyBabycorn,Momos,KonjeeCrispyLamb,KungPaoChicken,BbqChicken,ChickenSoup"
301,22.5535181117,88.3558394015,Eaterniaa,,,,,,,,,
302,22.5419937,88.3487743,Jam House," 1, AJC Bose Road, Near Shikshayatan College, Chowringhee, Kolkata",Chowringhee,950," Cafe, Chinese, Italian, Continental, North Indian, Mexican",                                9 AM to 5 AM (Mon-Sun),3.6,Cafe,284 votes,"Mocktails,Momos,Cappuccino,Brownie,Nachos,ChilliBabycorn,VirginMojito"
303,22.5535227562,88.3521942794,Kusum Rolls," 21, Karnani Mansion, Park Street Area, Kolkata",Park Street Area,200," Street Food, Rolls",                                11:30 AM to 11:30 PM (Mon-Sun),4,Quick Bites,717 votes,"ChikenRoll,KaathiRoll,PaneerRoll,ChickenEggRoll,MuttonEggRoll,LiverRoll,CheeseRoll"
304,22.5172223,88.3640365,Hungry Tide,,,,,,,,,"Risotto,ChickenSandwich,Momos,ChickenMomo,CrabCake,ChilliPork,Tetrazzini"
305,22.5537494087,88.3515676484,Cha Bar," Oxford Book Store, 17, Park Street Area, Kolkata Park Street Area",Park Street Area,300," Cafe, Beverages",                                9:30 AM to 9:30 PM (Mon-Sun),4,Cafe,472 votes,"Coffee,Lemonade,RoastChicken,HotChocolate,BlueberryMuffin,Brownie,Cappuccino"
306,22.5087453,88.3361145,Zyka," Block P, 850, New Alipore, Kolkata",New Alipore,500," Chinese, North Indian",                                12 Noon to 11:30 PM (Mon-Sun),3.5,Casual Dining,285 votes,"Mocktails,MalaiKofta,KebabPlatter,Brownie,FriedRiceChicken,DalMakhani,GulabJamun"
307,22.5180666,88.354336,Vault,,,,,,,,,"Mocktails,CrispyChilliBabycorn,Noodles,BarbequeChickenPizza,ChilliChicken,CorianderChicken,CheeseChilliToast"
308,22.5605717,88.3515952,Wow! Momo," 3A, Humayun Place, New Empire Cinema, New Market Area, Kolkata",New Market Area,400, Tibetan,                                10:30 AM to 10:30 PM (Mon-Sun),3.7,Casual Dining,512 votes,"ChocolateMomos,Thukpa,VegMomos,MushroomMomo,SchezwanMomos,TandooriMomos,CheeseMomos"
309,22.5235414,88.3638437,Smoke Shack - Park Plaza," Park Plaza, 17, Garcha Road, Ballygunge, Kolkata","Park Plaza, Ballygunge",2800," North Indian, Continental",                                4 PM to 11:45 PM (Mon-Sun),3.8,Lounge,526 votes,"VirginMojito,Mocktails,TeriyakiChicken,Non-VegKebabPlatter,Cheesecake,MezzePlatter,PorkChops"
310,22.5404313968,88.349446021,Rooftop Top View,,,,,,,,,"DhaniaDosa,CholeBhature,PavBhaji,MysoreDosa,MasalaDosa,CheeseOnionDosa,CheeseMushroom"
311,22.5950954,88.418889,Sharma Tea," CF 209, Near Swimming Pool, Sector 1, Salt Lake","Sector 1, Salt Lake",100, Street Food,                                5:30 AM to 10 PM (Mon-Sun),3.8,Quick Bites,357 votes,"Lassi,GulabJamun,AlooParatha,Samosa,Chai,ClubKachori,FlavoredTea"
312,22.5888413,88.4278933,Courting Coffees," BK 39, Near Tank number 9 and Island number 8, Sector 2, Salt Lake, Kolkata","Sector 2, Salt Lake",600," Healthy Food, Continental, Beverages, Cafe, Desserts, Italian, Pizza, Salad","                                8:30 AM to 10 PM (Mon-Fri),9 AM to 10:30 PM (Sat-Sun)",3.8,Cafe,195 votes,"Waffles,ProteinShake,CarrotCake,HotChocolate,SummerCooler,VirginMojito,Cappuccino"
313,22.5410297,88.3569439,Deli Cravings,,,,,,,,,"StuffedChickenSteak,PaanMojito,CaesarSalad,HotPot,ChocolateFondant,Berryblast,Risotto"
314,22.5174983,88.3667767,First Flush," 21/2 , Gariahat Road, Gariahat, Kolkata",Gariahat,500," Cafe, Continental, Fast Food",                                11 AM to 9:30 PM (Mon-Sun),4.2,Cafe,198 votes,"EggMayoSandwich,PorkChops,OreoBlast,Brownie,ChickenLollipop,PeriPeriChicken,HotChocolate"
315,22.5410297,88.3569439,Deli Cravings,,,,,,,,,"StuffedChickenSteak,PaanMojito,CaesarSalad,HotPot,ChocolateFondant,Berryblast,Risotto"
316,22.5888413,88.4278933,Courting Coffees," BK 39, Near Tank number 9 and Island number 8, Sector 2, Salt Lake, Kolkata","Sector 2, Salt Lake",600," Healthy Food, Continental, Beverages, Cafe, Desserts, Italian, Pizza, Salad","                                8:30 AM to 10 PM (Mon-Fri),9 AM to 10:30 PM (Sat-Sun)",3.8,Cafe,195 votes,"Waffles,ProteinShake,CarrotCake,HotChocolate,SummerCooler,VirginMojito,Cappuccino"
317,22.6287799,88.434075,Haldiram's Prabhuji," P420, Kazi Nazrul Islam Avenue, V.I.P. Road, Kaikhali, Kolkata",Kaikhali,400," Mithai, South Indian, Fast Food, North Indian",                                8 AM to 10 PM (Mon-Sun),3.7,"Sweet Shop,Casual Dining",379 votes,"VegThali,PavBhaji,CholeBhature,Chowmein,GulabJamun,GajarKaHalwa,SoanPapdi"
318,22.5147089179,88.3936820179,Krazy for Chocolates," 3rd Floor, Acropolis Mall, 1858/1, Rajdanga Main Road, Kasba, Kolkata","Acropolis Mall, Kasba",250," Desserts, Bakery",                                10 AM to 10:30 PM (Mon-Sun),4.3,Dessert Parlor,206 votes,"Tiramisu,ChocolateMudpie,ChocolateBoat,ChocolateMuffin,OreoCheesecake,PaneerPuff,Brownie"
319,22.5724192,88.4132227,Abcos Food Plaza," IB 172, Behind Columbia Asia Hospital, Sector 3, Salt Lake","Sector 3, Salt Lake",1000," Bengali, Continental, North Indian, Chinese, Asian",                                11 AM to 10:45 PM (Mon-Sun),3.7,Casual Dining,637 votes,"Raan,ElaichiRann,Mocktails,LimeSodaSweet,GulabJamun,Kulcha,FriedPrawn"
320,22.5880062,88.407979,Kookie Jar," 42A, Rawdon Street, Loudon Street Area, Kolkata",Loudon Street Area,350," Bakery, Desserts, Fast Food",                                8 AM to 10 PM (Mon-Sun),4.2,Bakery,684 votes,"ChickenPuff,ChickenShawarama,Macaroon,ChickenPatty,MuttonPatty,ChocolateBoat,MochaBiscuit"
321,22.5318534339,88.3268423751,Sonargaon - Taj Bengal," Taj Bengal, 34B, Belvedere Road, Alipore, Kolkata","Taj Bengal, Alipore",3700, North Indian,"                                12:30 PM to 2:45 PM, 7:30 PM to 11:45 PM (Mon-Sun)",4.3,Fine Dining,443 votes,"DalSonargaon,JumboPrawns,PudinaParatha,KebabPlatter,KakoriKebab,DalMakhani,PindiChana"
322,22.5378698,88.352885,Sumo Dough," 6B, Elgin Road, Elgin, Kolkata",Elgin,600," Italian, Salad",                                11 AM to 11 PM (Mon-Sun),3.9,Casual Dining,257 votes,"Ravioli,GarlicBread,KitKatShake,Waffles,JackedPotato,Tiramisu,Lasagne"
323,22.5381112,88.3491672,Tyre Patty," Ground Floor, 26, Lee Road, Lee Commerce, Elgin, Kolkata",Elgin,850," Cafe, Continental, Italian",                                8 AM to 11 PM (Mon-Sun),3.7,Cafe,887 votes,"Mocktails,CrispyBabycorn,Momos,Coffee,MongolianRice,Nachos,GarlicBread"
324,22.5381112,88.3491672,Turban Treat,,,,,,,,,
325,22.5169845,88.3497743,Banana Leaf @ Komala Vilas," 73 & 75, Lake Market Area, Kolkata",Lake Market Area,400, South Indian,"                                8 AM to 10 PM (Mon-Fri),7 AM to 10 PM (Sat-Sun)",3.9,Casual Dining,1338 votes,"Upma,Thali,FilterCoffee,PaneerDosa,Lassi,MasalaDosa,MiniIdlis"
326,22.5140727478,88.3622193709,Fung Shway,,,,,,,,,"PorkRibs,Chaat,PadThaiNoodle,TaiPaiChicken,PrawnSushi,KungPaoChicken,LaksaSoup"
327,22.5186628,88.3591818,Deraa The Afghan Rasoi," 125, Rash Behari Avenue, Near Triangular Park, Gariahat, Kolkata",Gariahat,1000," Afghani, Beverages, Desserts, Charcoal Grill, North Indian",                                12 Noon to 10:30 PM (Mon-Sun),3.9,Casual Dining,188 votes,"Firni,Kulfi,FishKebab,MuttonKeema,CheeseNaan,MeatBalls,GalautiKebab"
328,22.5392360881,88.347164467,Momo Plaza," 3D, Roy Street, Elgin, Kolkata",Elgin,350," Chinese, Tibetan",                                12 Noon to 10 PM (Mon-Sun),3.6,Casual Dining,861 votes,"ChickenThupka,Noodles,Thukpa,ClearSoup,SweetCornSoup,Dumplings,PanFriedMomos"
329,22.4928296,88.3456009,Silver Screen," 5, N.S.C. Road, Regent Park, Tollygunge, Kolkata",Tollygunge,800," North Indian, Chinese",                                12 Noon to 11:15 PM (Mon-Sun),3.5,"Casual Dining,Bar",299 votes,"CrispyChilliBabycorn,SweetCornChickenSoup,CrispyChicken,TandooriChicken,MixedHakkaNoodles,Fries,TangdiKabab"
330,22.552994828,88.3523163199,Oasis,,,,,,,,,"Mocktails,PorkSizzler,ChickenSizzler,HakkaNoodles,ChickenTetrazzini,LimeSoda,Mojito"
331,22.552994828,88.3523163199,KIFO - Food's by Kilo,,,,,,,,,"Thali,PavBhaji,ChickenMasala,Chaap,ChickenCurry,GajarKaHalwa,KhastaParatha"
332,22.5694265384,88.4334313497,Mission Cafe,,,,,,,,,"CholeBhature,PanneerButterMasala,SchezwanDosa,PaneerTikka,HakkaNoodles,CrispyChilliBabycorn,Buttermilk"
333,22.5188080252,88.3918346465,Orko'ss Restaurant," 3rd Floor, Block E, City Centre 1, Sector 1, Salt Lake","City Centre 1, Sector 1, Salt Lake",1500," North Indian, Chinese, Italian",                                12:30 PM to 11 PM (Mon-Sun),3.1,"Casual Dining,Lounge",449 votes,"Mocktails,Noodles,TaiPaiChicken,GulabJamun,MurghPatiala,DalMakhani,Non-VegKebabPlatter"
334,22.5155981,88.3507606,Silli Chillies," 24B, Kavi Bharti Sarani, Lake Mall, Lake Market Area, Kolkata",Lake Market Area,500, Chinese,"                                Closed (Mon),12 Noon to 4 PM, 6 PM to 10 PM (Tue-Sun)",3.9,Casual Dining,90 votes,"Noodles,HoisinChicken,SeafoodSoup,Chowmein,MongolianChicken,RoastPorkChilli"
335,22.5233597965,88.3973237872,Eagle Boys Pizza,,,,,,,,,"Brownie,GarlicBread,ChocolatePizza,VeggiePizza,Mojito,ChickenExtravaganza,TripleChocolateSweetza"
336,22.5163854318,88.368245624,Wakeup Cafe,,,,,,,,,"Coffee,Mocktails,StrawberryShake,OreoShake,CheesyChickenBurger"
337,22.6534440346,88.3774392307,Saezal,,,,,,,,,"FrenchFries,CheeseBalls,CheesyChickenBurger,ChickenCheeseBall"
338,22.5128344688,88.3491362259,The Eye Within Club,,,,,,,,,"MasalaPeanuts,Noodles,ChilliChicken,Mocktails,FrenchFries"
339,22.5532741193,88.3534006029,Don Giovanni's Good Fellas,,,,,,,,,"Lasagne,ChickenChunks,DynamiteChicken,SweetCornSoup,Brownie,LimeSoda,BangBangChicken"
340,22.5884726,88.4080465,Afraa Creperie," Ground Floor, CII Building, Suresh Neotia Centre of Excellence for Leadership, City Center, Sector 1, Salt Lake","City Centre 1, Sector 1, Salt Lake",1000," Cafe, Italian, Continental, Bakery, Desserts",                                10 AM to 10 PM (Mon-Sun),4,Cafe,448 votes,"CremeCaramel,ApplePie,Coffee,MushroomSoup,BbqChicken,CrepeSuzette,Custard"
